,date_beach_address,height_rise_max,height_rise_min,height_rise_mean,height_rise_median,height_rise_std,height_rise_var,height_rise_sem,date,beach_address,beach_name,country_state,country,latitude,longitude
0,2020-04-27|1 km off Blacks Beach Queensland AUSTRALIA,0.9345244374557778,-0.9773940556912897,0.0709502577145688,0.2094274531479945,0.7218893072028385,0.5211241718537941,0.22828144292819644,2020-04-27,1 km off Blacks Beach Queensland AUSTRALIA,1 km off Black's Beach,Queensland,AUSTRALIA,-21.062778,149.1875
1,2020-04-27|10 miles off Nambucca Heads onboard trawler New South Wales AUSTRALIA,0.6772379711232455,-0.4335384423150913,0.07908934312154974,0.12940508703487763,0.3741133482546914,0.139960797342336,0.1037603738436774,2020-04-27,10 miles off Nambucca Heads onboard trawler New South Wales AUSTRALIA,10 miles off Nambucca Heads onboard trawler,New South Wales,AUSTRALIA,-30.6419702,152.9978834
2,2020-04-27|15 km north of Lancelin north of Perth Western Australia AUSTRALIA,0.2893379625157995,-0.20172252540423494,0.013809708423086386,-0.048063339875453644,0.16802475881094045,0.02823231957347471,0.04490650571184752,2020-04-27,15 km north of Lancelin north of Perth Western Australia AUSTRALIA,15 km north of Lancelin,Western Australia,AUSTRALIA,-31.045409799999998,115.35327749999999
3,2020-04-27|15 miles off shore New South Wales AUSTRALIA,0.6355108740512087,-0.466490018957509,0.0654984059529277,0.08663097192323141,0.3580336639325729,0.12818810450898258,0.09930067181931797,2020-04-27,15 miles off shore New South Wales AUSTRALIA,1.5 miles off shore,New South Wales,AUSTRALIA,-31.2532183,146.921099
4,2020-04-27|15 miles up the Cataract River New South Wales AUSTRALIA,0.6215833164082484,-0.46865150640234665,0.05881940019267458,0.0756279387511128,0.3521027487598105,0.12397634568421423,0.09765573191425472,2020-04-27,15 miles up the Cataract River New South Wales AUSTRALIA,15 miles up the Cataract River,New South Wales,AUSTRALIA,-34.229766399999995,150.7616844
5,2020-04-27|150 yards from the pier at Lorne Victoria AUSTRALIA,0.9768799943123923,-0.8602139953312806,0.1526607841892266,0.17268015079515847,0.5846034176637472,0.34176115594413375,0.16876047027866986,2020-04-27,150 yards from the pier at Lorne Victoria AUSTRALIA,150 yards from the pier at Lorne,Victoria,AUSTRALIA,-38.5366556,143.97154840000002
6,2020-04-27|18 km west of Bunbury Western Australia AUSTRALIA,0.31147513748180466,-0.21246610508220565,-0.0005786594095041111,-0.051081944695786106,0.18159960233054792,0.03297841556661314,0.05242328964513542,2020-04-27,18 km west of Bunbury Western Australia AUSTRALIA,18 km west of Bunbury,Western Australia,AUSTRALIA,-33.3209971,115.63834820000001
7,2020-04-27|18 miles south of Port Augusta South Australia AUSTRALIA,1.4093382133976737,-1.2971567437122782,0.07815741803758715,0.1263010686242938,0.8244218620085544,0.6796714065576519,0.2379900919782257,2020-04-27,18 miles south of Port Augusta South Australia AUSTRALIA,18 miles south of Port Augusta,South Australia,AUSTRALIA,-32.495233899999995,137.78943940000002
8,2020-04-27|20 k off The Spit off the Gold Coast Queensland AUSTRALIA,0.6931353280720509,-0.46386526339180545,0.07715630362464596,0.05880311383443817,0.38841699255741463,0.15086776010734668,0.11212632760542411,2020-04-27,20 k off The Spit off the Gold Coast Queensland AUSTRALIA,20 k off The Spit,Queensland,AUSTRALIA,-27.9352516,153.43347680000002
9,2020-04-27|20 miles off Sydney New South Wales AUSTRALIA,0.6300803010871231,-0.4657548917338656,0.0633809838629394,0.08388338532091576,0.3555483355129545,0.12641461888603248,0.09861136573829474,2020-04-27,20 miles off Sydney New South Wales AUSTRALIA,20 miles off Sydney,New South Wales,AUSTRALIA,-33.8688197,151.2092955
10,2020-04-27|200 km east of Coolangatta Queensland AUSTRALIA,0.690831162752822,-0.46022738400741015,0.07699094192653456,0.05898836027890565,0.38817146948176595,0.15067708971963356,0.1120554511985151,2020-04-27,200 km east of Coolangatta Queensland AUSTRALIA,200 km east of Coolangatta,Queensland,AUSTRALIA,-28.166666999999997,153.533333
11,2020-04-27|200 miles offshore Queensland AUSTRALIA,1.1259650002932697,-0.8163396313496025,0.171141498215033,0.17413237724111336,0.727028752524848,0.5285708069978367,0.2299066782409412,2020-04-27,200 miles offshore Queensland AUSTRALIA,200 miles offshore,Queensland,AUSTRALIA,-20.9175738,142.7027956
12,2020-04-27|26 nautical miles out to sea off Lake Macquarie New South Wales AUSTRALIA,0.6759857983783256,-0.4396776556349442,0.07769195459944116,0.11653457720031657,0.37313316565943033,0.13922835931502786,0.10348852010471347,2020-04-27,26 nautical miles out to sea off Lake Macquarie New South Wales AUSTRALIA,26 nautical miles out to sea off Lake Macquarie,New South Wales,AUSTRALIA,-31.433333,152.9
13,2020-04-27|3 km off Port Victoria Yorke Peninsula South Australia AUSTRALIA,0.64885366110498,-0.3960667362097886,0.028285406905294342,-0.05591765830816704,0.3355694988627058,0.11260688856696753,0.09687057025010552,2020-04-27,3 km off Port Victoria Yorke Peninsula South Australia AUSTRALIA,3 km off Port Victoria,South Australia,AUSTRALIA,-34.496666999999995,137.48333300000002
14,2020-04-27|3 km west of Rottnest Island Western Australia AUSTRALIA,0.2897451722661068,-0.19464672001430683,0.014735138734194056,-0.05045564436346091,0.16986253052841327,0.028853279277516134,0.04539767086341083,2020-04-27,3 km west of Rottnest Island Western Australia AUSTRALIA,3 km west of Rottnest Island,Western Australia,AUSTRALIA,-32.0063677,115.5073002
15,2020-04-27|3 miles out to sea off Glenelg South Australia AUSTRALIA,1.221992136857959,-1.02761628766497,0.08879134830921323,0.20907939642783965,0.7498369972450439,0.562255522437464,0.20796736475438124,2020-04-27,3 miles out to sea off Glenelg South Australia AUSTRALIA,3 miles out to sea off Glenelg,South Australia,AUSTRALIA,-34.982,138.516
16,2020-04-27|5 miles south of Sussex Inlet at mouth of Berara Lake New South Wales AUSTRALIA,0.6007581148846729,-0.4727256658977824,0.08223711421745072,0.11216712036760092,0.33861312700811597,0.11465884978221447,0.09774919001463835,2020-04-27,5 miles south of Sussex Inlet at mouth of Berara Lake New South Wales AUSTRALIA,5 miles south of Sussex Inlet at mouth of Berara Lake,New South Wales,AUSTRALIA,-35.206926200000005,150.5515985
17,2020-04-27|5 nm off Cervantes Western Australia AUSTRALIA,1.9233485635564693,-1.948574316542124,0.33474121168817517,0.5454806879353974,1.2572681928674398,1.5807233087961579,0.3629420647977854,2020-04-27,5 nm off Cervantes Western Australia AUSTRALIA,5 nm off Cervantes,Western Australia,AUSTRALIA,34.5199402,-105.87009009999998
18,2020-04-27|50 km east of Townsville Queensland AUSTRALIA,0.588723815465737,-0.5604318963996815,0.06499829611531795,0.07238478607514957,0.3429107448745787,0.11758777895043838,0.09898980543067655,2020-04-27,50 km east of Townsville Queensland AUSTRALIA,50 km east of Townsville,Queensland,AUSTRALIA,-19.2589635,146.8169483
19,2020-04-27|55 miles south of Adelaide South Australia AUSTRALIA,1.221992136857959,-1.02761628766497,0.08879134830921323,0.20907939642783965,0.7498369972450439,0.562255522437464,0.20796736475438124,2020-04-27,55 miles south of Adelaide South Australia AUSTRALIA,55 miles south of Adelaide,South Australia,AUSTRALIA,-34.9284989,138.6007456
20,2020-04-27|6 km off Collendina south of Melbourne Victoria AUSTRALIA,0.29738929625799,-0.3727052894406075,0.02073971460455954,0.05015050777263484,0.23581847954737,0.05561035529603337,0.07860615984912334,2020-04-27,6 km off Collendina south of Melbourne Victoria AUSTRALIA,6 km off Collendina,Victoria,AUSTRALIA,-37.835,144.96
21,2020-04-27|7 Mile Beach Gerroa New South Wales AUSTRALIA,0.6172100093649017,-0.4708968057534195,0.057264481300539696,0.07049521796367438,0.35018076633473844,0.12262656911078468,0.09712266990009026,2020-04-27,7 Mile Beach Gerroa New South Wales AUSTRALIA,7 Mile Beach,New South Wales,AUSTRALIA,-34.7699,150.813133
22,2020-04-27|7 km off Trigg surf beach Perth Western Australia AUSTRALIA,0.29264072610842906,-0.19483797243731701,0.012877282178459596,-0.05486282359118021,0.17046180578870612,0.02905722723274656,0.04555783391372409,2020-04-27,7 km off Trigg surf beach Perth Western Australia AUSTRALIA,7 km off Trigg surf beach,Western Australia,AUSTRALIA,-31.8744999,115.7531233
23,2020-04-27|A pearl farm in Roebuck Bay Western Australia AUSTRALIA,3.720186943365496,-3.3201322122692107,0.7691651321627377,1.3721442967316517,2.57644483032977,6.638067963732996,0.7437555581715561,2020-04-27,A pearl farm in Roebuck Bay Western Australia AUSTRALIA,A pearl farm in Roebuck Bay,Western Australia,AUSTRALIA,-18.0858333,122.28305559999998
24,2020-04-27|Adelaide South Australia AUSTRALIA,1.221992136857959,-1.02761628766497,0.08879134830921323,0.20907939642783965,0.7498369972450439,0.562255522437464,0.20796736475438124,2020-04-27,Adelaide South Australia AUSTRALIA,Adelaide,South Australia,AUSTRALIA,-34.9284989,138.6007456
25,2020-04-27|African Reef off Geraldton Western Australia AUSTRALIA,0.3215411968234156,-0.11377987736185519,0.04180799054097753,-0.028799019552848037,0.15578803256571377,0.024269911090695897,0.04497213126916852,2020-04-27,African Reef off Geraldton Western Australia AUSTRALIA,African Reef off Geraldton,Western Australia,AUSTRALIA,-28.802443,114.61852209999999
26,2020-04-27|Albany Western Australia AUSTRALIA,0.3701522340493061,-0.169223306831801,0.048110021279206716,-0.0336152092905689,0.21005880086116407,0.04412469981923019,0.06333511148804227,2020-04-27,Albany Western Australia AUSTRALIA,Albany,Western Australia,AUSTRALIA,-35.0269344,117.8837206
27,2020-04-27|Albany incident took place 200 metres from swimmers Western Australia AUSTRALIA,0.3701522340493061,-0.169223306831801,0.048110021279206716,-0.0336152092905689,0.21005880086116407,0.04412469981923019,0.06333511148804227,2020-04-27,Albany incident took place 200 metres from swimmers Western Australia AUSTRALIA,Albany (incident took place 200 metres from swimmers),Western Australia,AUSTRALIA,-35.0269344,117.8837206
28,2020-04-27|Albert Park in Port Phillip Bay Victoria AUSTRALIA,0.29738929625799,-0.3727052894406075,0.02073971460455954,0.05015050777263484,0.23581847954737,0.05561035529603337,0.07860615984912334,2020-04-27,Albert Park in Port Phillip Bay Victoria AUSTRALIA,Albert Park in Port Phillip Bay,Victoria,AUSTRALIA,-37.8438609,144.95145359999998
29,2020-04-27|Aldinga Beach South Australia AUSTRALIA,1.1161357151233842,-0.911957844832573,0.029707363885111176,0.011966441516108803,0.6782648475988161,0.4600432034882453,0.18127390551480085,2020-04-27,Aldinga Beach South Australia AUSTRALIA,Aldinga Beach,South Australia,AUSTRALIA,-35.281,138.454
30,2020-04-27|Alexandra Headland near Mooloolaba Queensland AUSTRALIA,0.692168359900246,-0.5003901976296329,0.07507501705451188,0.08731145968942955,0.3923638403219293,0.1539493831921724,0.11326568441507061,2020-04-27,Alexandra Headland near Mooloolaba Queensland AUSTRALIA,Alexandra Headland near Mooloolaba,Queensland,AUSTRALIA,-26.673000000000002,153.101
31,2020-04-27|Alma Bay Magnetic Island Townsville Queensland AUSTRALIA,0.5975637434714384,-0.5670519988208848,0.06657036601135725,0.07571712369955323,0.34851636607529346,0.12146365742232797,0.10060800888528042,2020-04-27,Alma Bay Magnetic Island Townsville Queensland AUSTRALIA,Alma Bay,Queensland,AUSTRALIA,-19.148322,146.868517
32,2020-04-27|Altona Melbourne Victoria AUSTRALIA,0.2960058191803291,-0.3712421475669054,0.021349450473729534,0.05182501204981958,0.23438764119775904,0.05493756634624943,0.07812921373258634,2020-04-27,Altona Melbourne Victoria AUSTRALIA,Altona,Victoria,AUSTRALIA,-37.863151200000004,144.81202180000002
33,2020-04-27|Amity Point North Stradbroke Island Queensland AUSTRALIA,0.9317834488666279,-0.6520419515541515,0.10591012459644383,0.14585113012354275,0.5351966820066396,0.2864354884309161,0.15449797421296396,2020-04-27,Amity Point North Stradbroke Island Queensland AUSTRALIA,Amity Point,Queensland,AUSTRALIA,-27.397250800000002,153.45375990000002
34,2020-04-27|Anglesea Victoria AUSTRALIA,1.0261365961096707,-0.9182973055360063,0.1461193048751631,0.15964037662096925,0.6209873217782553,0.3856252538093305,0.17926359869601025,2020-04-27,Anglesea Victoria AUSTRALIA,Anglesea,Victoria,AUSTRALIA,-38.4096639,144.18251709999998
35,2020-04-27|Angourie New South Wales AUSTRALIA,0.6907981293561513,-0.4470814062055512,0.08263259158407216,0.13485025889460758,0.3798674137388861,0.14429925202067007,0.10535626447026522,2020-04-27,Angourie New South Wales AUSTRALIA,Angourie,New South Wales,AUSTRALIA,-29.479166999999997,153.359444
36,2020-04-27|Angourie near Yamba New South Wales AUSTRALIA,0.6907981293561513,-0.4470814062055512,0.08263259158407216,0.13485025889460758,0.3798674137388861,0.14429925202067007,0.10535626447026522,2020-04-27,Angourie near Yamba New South Wales AUSTRALIA,Angourie,New South Wales,AUSTRALIA,-29.479166999999997,153.359444
37,2020-04-27|Arakoons Little Bay New South Wales AUSTRALIA,0.6278229986743437,-0.4662432397404767,0.06192377888831569,0.08211258690566535,0.35468135972727927,0.1257988669379917,0.09837090991907645,2020-04-27,Arakoons Little Bay New South Wales AUSTRALIA,Arakoon's Little Bay,New South Wales,AUSTRALIA,-33.980540000000005,151.24301
38,2020-04-27|Archies Beach Queensland AUSTRALIA,1.1259650002932697,-0.8163396313496025,0.171141498215033,0.17413237724111336,0.727028752524848,0.5285708069978367,0.2299066782409412,2020-04-27,Archies Beach Queensland AUSTRALIA,Archie's Beach,Queensland,AUSTRALIA,-20.9175738,142.7027956
39,2020-04-27|Ardrossan South Australia AUSTRALIA,1.4633899715335408,-1.3262263193012758,0.139762335927622,0.4012710010810525,0.9370206544739702,0.8780077069108275,0.25988277045190195,2020-04-27,Ardrossan South Australia AUSTRALIA,Ardrossan,South Australia,AUSTRALIA,-34.419107399999994,137.91780119999999
40,2020-04-27|Arlington Reef near Cairns Queensland AUSTRALIA,0.46342426138162796,-0.5396420764635637,0.011077011296388837,0.04614904623070783,0.3162090245384425,0.09998814719955335,0.09128168271872938,2020-04-27,Arlington Reef near Cairns Queensland AUSTRALIA,Arlington Reef near Cairns,Queensland,AUSTRALIA,-16.688272899999998,146.0357725
41,2020-04-27|Arrawarra Headland New South Wales AUSTRALIA,0.6811691473622535,-0.44148933939328044,0.07960066828306137,0.13352039068927588,0.37624634621828823,0.14156131304261202,0.10435196103815499,2020-04-27,Arrawarra Headland New South Wales AUSTRALIA,Arrawarra Headland,New South Wales,AUSTRALIA,-30.068610999999997,153.195278
42,2020-04-27|At Flat Top near Mackay Queensland AUSTRALIA,0.9535881775849978,-1.0394100109797981,0.06929412190673734,0.2024248371056069,0.7664862234765066,0.5875011307792773,0.24238422613265848,2020-04-27,At Flat Top near Mackay Queensland AUSTRALIA,At Flat Top,Queensland,AUSTRALIA,-21.162427899999997,149.24560830000001
43,2020-04-27|Auckland Creek Gladstone Queensland AUSTRALIA,1.099029645583632,-0.7874090561351443,0.1551381270598329,0.23038097787199768,0.6264796779969006,0.39247678694310034,0.18084910536667034,2020-04-27,Auckland Creek Gladstone Queensland AUSTRALIA,Auckland Creek,Queensland,AUSTRALIA,-23.875737899999997,151.24061310000002
44,2020-04-27|Austinmer New South Wales AUSTRALIA,0.6227526108455902,-0.4683204269333722,0.05918301273086027,0.0762420788316424,0.35253705153155207,0.1242823727025602,0.09777618583060782,2020-04-27,Austinmer New South Wales AUSTRALIA,Austinmer,New South Wales,AUSTRALIA,-34.306311,150.93451000000002
45,2020-04-27|Avalon Beach New South Wales AUSTRALIA,0.6355108740512087,-0.466490018957509,0.0654984059529277,0.08663097192323141,0.3580336639325729,0.12818810450898258,0.09930067181931797,2020-04-27,Avalon Beach New South Wales AUSTRALIA,Avalon Beach,New South Wales,AUSTRALIA,-33.6302836,151.3297698
46,2020-04-27|Avalon Beach near Mandurah 50 miles south of Perth Western Australia AUSTRALIA,0.2901841474933051,-0.19766576653077025,0.009898514216444375,-0.052897823092601576,0.17769549608883414,0.03157568933025687,0.04749111896694616,2020-04-27,Avalon Beach near Mandurah 50 miles south of Perth Western Australia AUSTRALIA,Avalon Beach,Western Australia,AUSTRALIA,-32.5933864,115.6364088
47,2020-04-27|Avalon New South Wales AUSTRALIA,0.6355108740512087,-0.466490018957509,0.0654984059529277,0.08663097192323141,0.3580336639325729,0.12818810450898258,0.09930067181931797,2020-04-27,Avalon New South Wales AUSTRALIA,Avalon,New South Wales,AUSTRALIA,-33.6302836,151.3297698
48,2020-04-27|Avalon Point Manurah Western Australia AUSTRALIA,0.2896825681922202,-0.19706663319489034,0.010087419247665758,-0.052728981536568846,0.17748336222129193,0.03150034386537432,0.04743442380605515,2020-04-27,Avalon Point Manurah Western Australia AUSTRALIA,Avalon Point,Western Australia,AUSTRALIA,-32.5947053,115.6329821
49,2020-04-27|Avoca Beach New South Wales AUSTRALIA,0.6403183297465384,-0.46567429656248066,0.06722422763540131,0.08963358344583876,0.3600652422425481,0.12964697867118485,0.09986413026291305,2020-04-27,Avoca Beach New South Wales AUSTRALIA,Avoca Beach,New South Wales,AUSTRALIA,-33.465,151.435
50,2020-04-27|Backbeach Halls Head Western Australia AUSTRALIA,0.29061176313742315,-0.19714228746015156,0.009466598489619166,-0.054234279028357125,0.17776747470513685,0.03160127506304147,0.04751035606133036,2020-04-27,Backbeach Halls Head Western Australia AUSTRALIA,Backbeach,Western Australia,AUSTRALIA,-32.5293276,115.6941929
51,2020-04-27|Badger Head Tasmania AUSTRALIA,1.1698704873886008,-1.0294271529479189,0.20737472410191626,0.13295021393962095,0.792006000504112,0.6272735048345194,0.23879879412565175,2020-04-27,Badger Head Tasmania AUSTRALIA,Badger Head,Tasmania,AUSTRALIA,-41.1291591,146.731436
52,2020-04-27|Bald Island Western Australia AUSTRALIA,0.37565004773009203,-0.17421084171196102,0.044300429653961415,-0.05023035069633813,0.21081100640747077,0.044441280422530684,0.06356190999370806,2020-04-27,Bald Island Western Australia AUSTRALIA,Bald Island,Western Australia,AUSTRALIA,-34.9233188,118.46887759999998
53,2020-04-27|Balmain Sydney Estuary New South Wales AUSTRALIA,0.6300803010871231,-0.4657548917338656,0.0633809838629394,0.08388338532091576,0.3555483355129545,0.12641461888603248,0.09861136573829474,2020-04-27,Balmain Sydney Estuary New South Wales AUSTRALIA,Balmain,New South Wales,AUSTRALIA,-33.85895,151.17906000000002
54,2020-04-27|Bantry Bay near Ironstone Point Middle Harbor Sydney New South Wales AUSTRALIA,0.6315376362736688,-0.465458366516061,0.06385605715113238,0.0845437523152989,0.3561202751447366,0.1268216503691629,0.098769993251284,2020-04-27,Bantry Bay near Ironstone Point Middle Harbor Sydney New South Wales AUSTRALIA,Bantry Bay,New South Wales,AUSTRALIA,-33.7806576,151.2151164
55,2020-04-27|Bar Beach Newcastle New South Wales AUSTRALIA,0.6505976384968132,-0.4649568472135418,0.069895203158927,0.0978721448530581,0.36517580456472454,0.1333533682394939,0.10128154522437932,2020-04-27,Bar Beach Newcastle New South Wales AUSTRALIA,Bar Beach,New South Wales,AUSTRALIA,-32.94,151.767778
56,2020-04-27|Bargara Queensland AUSTRALIA,0.9548758882145247,-0.6531758087532293,0.1236295676882412,0.12225910105261192,0.5528067323447047,0.3055952833256299,0.1666775011608918,2020-04-27,Bargara Queensland AUSTRALIA,Bargara,Queensland,AUSTRALIA,-24.8312314,152.4592208
57,2020-04-27|Barren Joey Island Tasmania AUSTRALIA,1.1300143391111328,-0.961887495798515,0.2289439655945605,0.15838008026365344,0.7585795742055094,0.5754429704018119,0.22872034738793054,2020-04-27,Barren Joey Island Tasmania AUSTRALIA,Barren Joey Island,Tasmania,AUSTRALIA,-40.94228579999999,146.98485580000002
58,2020-04-27|Barrier Reef Queensland AUSTRALIA,0.5086932130252056,-0.5612579821528583,0.0185516011367389,0.03081770448377874,0.33527144216323473,0.11240693993021526,0.09678452869226882,2020-04-27,Barrier Reef Queensland AUSTRALIA,Barrier Reef,Queensland,AUSTRALIA,-18.2870668,147.6991918
59,2020-04-27|Barrier Reef off Mackay Queensland AUSTRALIA,0.9347580703032512,-1.0200693576495552,0.0626213292965953,0.19500734210927445,0.7483680752224462,0.5600547760121488,0.23665476458591508,2020-04-27,Barrier Reef off Mackay Queensland AUSTRALIA,Barrier Reef off Mackay,Queensland,AUSTRALIA,-21.1424956,149.1821469
60,2020-04-27|Barrow Passage Western Australia AUSTRALIA,0.9537749265598761,-0.897250637201188,0.13775829245562624,0.36113004627744405,0.6441716275050466,0.4149570856825005,0.1786610640898873,2020-04-27,Barrow Passage Western Australia AUSTRALIA,Barrow Passage,Western Australia,AUSTRALIA,-20.780434200000002,115.4022706
61,2020-04-27|Barrow Point 100 miles north of Cooktown Queensland Queensland AUSTRALIA,0.4369250314442181,-0.526502536740622,0.009174758717799237,0.05808824182839314,0.3034664621768332,0.09209189366612335,0.08760322181390902,2020-04-27,Barrow Point 100 miles north of Cooktown Queensland Queensland AUSTRALIA,Barrow Point,Queensland,AUSTRALIA,-15.4758164,145.2470981
62,2020-04-27|Bass Point New South Wales AUSTRALIA,0.618479387662831,-0.4700831342991837,0.05799260306296899,0.07183055684990682,0.3506131674635123,0.12292959319879693,0.0972425963955797,2020-04-27,Bass Point New South Wales AUSTRALIA,Bass Point,New South Wales,AUSTRALIA,-34.5959607,150.9018394
63,2020-04-27|Batemans Bay New South Wales AUSTRALIA,0.5945325453521683,-0.47443067090334123,0.07897346266116562,0.10757195602093844,0.3368207622537453,0.113448225885194,0.0972317788779274,2020-04-27,Batemans Bay New South Wales AUSTRALIA,Bateman's Bay,New South Wales,AUSTRALIA,-35.7143871,150.1794707
64,2020-04-27|Bathurst Reef Rottnest Island Western Australia AUSTRALIA,0.2901839232926805,-0.19392102115774865,0.014328952236187447,-0.051690870435448295,0.16983672977945893,0.028844514782180954,0.04539077532320303,2020-04-27,Bathurst Reef Rottnest Island Western Australia AUSTRALIA,Bathurst Reef,Western Australia,AUSTRALIA,-31.989356899999997,115.5407453
65,2020-04-27|Batt Reef Queensland AUSTRALIA,0.46622532027117664,-0.5486731706731309,0.01197140676629242,0.08454581489353004,0.3373783105584234,0.11382412443525598,0.10172338804784455,2020-04-27,Batt Reef Queensland AUSTRALIA,Batt Reef,Queensland,AUSTRALIA,-16.415952800000003,145.7710071
66,2020-04-27|Beechford Tasmania AUSTRALIA,1.1483937797605637,-0.9876568239245369,0.2237680283253505,0.15305241806691203,0.7727824635725927,0.5971927360053255,0.23300267965788907,2020-04-27,Beechford Tasmania AUSTRALIA,Beechford,Tasmania,AUSTRALIA,-41.042725299999994,146.9720846
67,2020-04-27|Beecroft Head New South Wales AUSTRALIA,0.6115364007193587,-0.4703778501226314,0.0879804925591815,0.11981041957686608,0.3416916423624286,0.11675317846033383,0.09863788084889676,2020-04-27,Beecroft Head New South Wales AUSTRALIA,Beecroft Head,New South Wales,AUSTRALIA,-35.0135426,150.84937340000002
68,2020-04-27|Belfast now Port Fairy South Australia AUSTRALIA,0.4640575728701288,-0.44056860355842165,0.035147877487785,-0.010176712342954896,0.3030129105437399,0.09181682395618852,0.09136183008246462,2020-04-27,Belfast now Port Fairy South Australia AUSTRALIA,Belfast (now Port Fairy),South Australia,AUSTRALIA,-38.3860016,142.2356621
69,2020-04-27|Bellambi New South Wales AUSTRALIA,0.6215833164082484,-0.46865150640234665,0.05881940019267458,0.0756279387511128,0.3521027487598105,0.12397634568421423,0.09765573191425472,2020-04-27,Bellambi New South Wales AUSTRALIA,Bellambi,New South Wales,AUSTRALIA,-34.366667,150.916667
70,2020-04-27|Bellambi Reef New South Wales AUSTRALIA,0.6215833164082484,-0.46865150640234665,0.05881940019267458,0.0756279387511128,0.3521027487598105,0.12397634568421423,0.09765573191425472,2020-04-27,Bellambi Reef New South Wales AUSTRALIA,Bellambi Reef,New South Wales,AUSTRALIA,-34.373611100000005,150.93472219999998
71,2020-04-27|Bellingen New South Wales AUSTRALIA,0.6767782847161307,-0.43427163996854024,0.07884061917028809,0.12960794159358147,0.3738630917509913,0.13977361137361013,0.10369096517782286,2020-04-27,Bellingen New South Wales AUSTRALIA,Bellingen,New South Wales,AUSTRALIA,-30.4522423,152.8979566
72,2020-04-27|Bellinger Head New South Wales AUSTRALIA,0.6767782847161307,-0.43427163996854024,0.07884061917028809,0.12960794159358147,0.3738630917509913,0.13977361137361013,0.10369096517782286,2020-04-27,Bellinger Head New South Wales AUSTRALIA,Bellinger Head,New South Wales,AUSTRALIA,-30.502025699999997,153.02505980000004
73,2020-04-27|Bells Beach Victoria AUSTRALIA,1.051198443182816,-0.9495052260527919,0.14071068525563468,0.15016257597340327,0.640611447618831,0.41038302682029426,0.184928595864344,2020-04-27,Bells Beach Victoria AUSTRALIA,Bells Beach,Victoria,AUSTRALIA,-38.366944000000004,144.284722
74,2020-04-27|Bellynahinch on the Manning River New South Wales AUSTRALIA,0.670979924291031,-0.453505918833297,0.07526200699464021,0.10889872655192134,0.3725622843882745,0.13880265574860953,0.10333018612814775,2020-04-27,Bellynahinch on the Manning River New South Wales AUSTRALIA,"""Bellynahinch"" on the Manning River",New South Wales,AUSTRALIA,-31.8518472,152.10067469999998
75,2020-04-27|Belongil Bay New South Wales AUSTRALIA,0.6891744161791671,-0.4612831382095517,0.07364348954154419,0.0581802216689572,0.38907220049655633,0.15137717719923252,0.11231546984544342,2020-04-27,Belongil Bay New South Wales AUSTRALIA,Belongil Bay,New South Wales,AUSTRALIA,-28.633732799999997,153.6003455
76,2020-04-27|Belongil Beach Byron Bay New South Wales AUSTRALIA,0.6891744161791671,-0.4612831382095517,0.07364348954154419,0.0581802216689572,0.38907220049655633,0.15137717719923252,0.11231546984544342,2020-04-27,Belongil Beach Byron Bay New South Wales AUSTRALIA,Belongil Beach,New South Wales,AUSTRALIA,-28.633732799999997,153.6003455
77,2020-04-27|Bermagui New South Wales AUSTRALIA,0.5862123585630971,-0.4732696089725526,0.074215770538617,0.10081398777324904,0.3334599704234603,0.11119555187481503,0.09626160184397474,2020-04-27,Bermagui New South Wales AUSTRALIA,Bermagui,New South Wales,AUSTRALIA,-36.4433701,150.061362
78,2020-04-27|Bernier Island Shark Bay Western Australia AUSTRALIA,0.47366988718871306,-0.4574074947802518,0.03783352152481473,0.05751982519243716,0.29402808270363784,0.0864525134183773,0.08487859634912744,2020-04-27,Bernier Island Shark Bay Western Australia AUSTRALIA,Bernier Island,Western Australia,AUSTRALIA,-24.8504267,113.1381998
79,2020-04-27|Berrys Bay Sydney Harbour New South Wales AUSTRALIA,0.6300803010871231,-0.4657548917338656,0.0633809838629394,0.08388338532091576,0.3555483355129545,0.12641461888603248,0.09861136573829474,2020-04-27,Berrys Bay Sydney Harbour New South Wales AUSTRALIA,Berry's Bay,New South Wales,AUSTRALIA,-33.8462182,151.2488616
80,2020-04-27|Between Bay Rock & Magnetic Island Cleveland Bay Queensland AUSTRALIA,0.5975212839220578,-0.5667415600440204,0.06579937888564623,0.07330242206697224,0.34819235157678724,0.12123791369657302,0.10051447395631347,2020-04-27,Between Bay Rock & Magnetic Island Cleveland Bay Queensland AUSTRALIA,Between Bay Rock & Magnetic Island,Queensland,AUSTRALIA,-19.2180556,146.9222222
81,2020-04-27|Between Carnac and Garden Islands Western Australia AUSTRALIA,0.29120141290097573,-0.19840932996952007,0.007575359945934455,-0.055564823680810636,0.17684860598049545,0.03127542943724453,0.04726477806482822,2020-04-27,Between Carnac and Garden Islands Western Australia AUSTRALIA,Between Carnac and Garden Islands,Western Australia,AUSTRALIA,-32.204325399999995,115.67762739999999
82,2020-04-27|Between De Grey River and Port Walcott Western Australia AUSTRALIA,2.7942146968846426,-2.3063407636439064,0.43021138226467087,0.9301048233661738,1.9148379906375095,3.666604530388695,0.5773453772056987,2020-04-27,Between De Grey River and Port Walcott Western Australia AUSTRALIA,Between De Grey River and Port Walcott,Western Australia,AUSTRALIA,-20.342612,118.6718706
83,2020-04-27|Between Dee Why and Long Reef New South Wales AUSTRALIA,0.6315376362736688,-0.465458366516061,0.06385605715113238,0.0845437523152989,0.3561202751447366,0.1268216503691629,0.098769993251284,2020-04-27,Between Dee Why and Long Reef New South Wales AUSTRALIA,Between Dee Why and Long Reef,New South Wales,AUSTRALIA,-33.746083399999996,151.30407160000001
84,2020-04-27|Between Port Arthur Penal Colony & Forestier Peninsula Tasmania AUSTRALIA,0.3611355402913955,-0.3664159616520618,0.06025305946659812,0.08250822075451497,0.22825195717251434,0.052098955953083316,0.06330570271619315,2020-04-27,Between Port Arthur Penal Colony & Forestier Peninsula Tasmania AUSTRALIA,Between Port Arthur Penal Colony & Forestier Peninsula,Tasmania,AUSTRALIA,-43.177459999999996,147.8420491
85,2020-04-27|Between Queensland AUSTRALIA,1.1259650002932697,-0.8163396313496025,0.171141498215033,0.17413237724111336,0.727028752524848,0.5285708069978367,0.2299066782409412,2020-04-27,Between Queensland AUSTRALIA,Between,Queensland,AUSTRALIA,-20.9175738,142.7027956
86,2020-04-27|Between Smith’s Rock & Moreton Island Queensland AUSTRALIA,0.867450686960901,-0.5523053771669768,0.12736954956093885,0.17207464964321567,0.47672054265024877,0.22726247578474768,0.13761736681367281,2020-04-27,Between Smith’s Rock & Moreton Island Queensland AUSTRALIA,Between Smith’s Rock & Moreton Island,Queensland,AUSTRALIA,-27.178901,153.3730896
87,2020-04-27|Between Wynnum & St Helena Island Queensland AUSTRALIA,0.9207920374721604,-0.6592240261067136,0.08886432660690065,0.12125391198139189,0.5343474873944131,0.28552723728472246,0.15425283284398228,2020-04-27,Between Wynnum & St Helena Island Queensland AUSTRALIA,Between Wynnum & St. Helena Island,Queensland,AUSTRALIA,-27.391666700000002,153.2327778
88,2020-04-27|Bherwerre Beach New South Wales AUSTRALIA,0.6026483771448415,-0.47339316793227476,0.08301764597816051,0.11330108469457828,0.3394136213871168,0.11520160638311706,0.0979802728372388,2020-04-27,Bherwerre Beach New South Wales AUSTRALIA,Bherwerre Beach,New South Wales,AUSTRALIA,-35.163734600000005,150.6497392
89,2020-04-27|Bilgola Beach Sydney New South Wales AUSTRALIA,0.6355108740512087,-0.466490018957509,0.0654984059529277,0.08663097192323141,0.3580336639325729,0.12818810450898258,0.09930067181931797,2020-04-27,Bilgola Beach Sydney New South Wales AUSTRALIA,Bilgola Beach,New South Wales,AUSTRALIA,-33.6444858,151.3275826
90,2020-04-27|Binalong Bay Tasmania AUSTRALIA,0.4863481798833592,-0.4588110885624931,0.05250364185320363,0.10356697754900371,0.2879975800606734,0.08294260612080397,0.07987615708602333,2020-04-27,Binalong Bay Tasmania AUSTRALIA,Binalong Bay,Tasmania,AUSTRALIA,-41.249126399999994,148.2928957
91,2020-04-27|Binningup Western Australia AUSTRALIA,0.30645546198880264,-0.20870165951030814,5.997892958217269e-05,-0.04971802021973373,0.17891525547274248,0.03201066864087671,0.051648385454659274,2020-04-27,Binningup Western Australia AUSTRALIA,Binningup,Western Australia,AUSTRALIA,-33.135769399999994,115.72061599999999
92,2020-04-27|Birubi Point New South Wales AUSTRALIA,0.6520275473269196,-0.463593699770799,0.06982393614109948,0.09882879147542334,0.36571343146151597,0.13374631395135694,0.1014306560969524,2020-04-27,Birubi Point New South Wales AUSTRALIA,Birubi Point,New South Wales,AUSTRALIA,-32.7884091,152.08031430000003
93,2020-04-27|Black Head south of Taree New South Wales AUSTRALIA,0.670979924291031,-0.453505918833297,0.07526200699464021,0.10889872655192134,0.3725622843882745,0.13880265574860953,0.10333018612814775,2020-04-27,Black Head south of Taree New South Wales AUSTRALIA,Black Head,New South Wales,AUSTRALIA,-31.8894897,152.4444453
94,2020-04-27|Black Point Eyre Peninsula South Australia AUSTRALIA,1.4140940119876029,-1.2642250502619636,0.15094141160051938,0.3921146377178625,0.8963398905389749,0.8034251993714215,0.2485999565832349,2020-04-27,Black Point Eyre Peninsula South Australia AUSTRALIA,Black Point,South Australia,AUSTRALIA,-34.6106775,137.8773175
95,2020-04-27|Black Point South Australia AUSTRALIA,1.4140940119876029,-1.2642250502619636,0.15094141160051938,0.3921146377178625,0.8963398905389749,0.8034251993714215,0.2485999565832349,2020-04-27,Black Point South Australia AUSTRALIA,Black Point,South Australia,AUSTRALIA,-34.6106775,137.8773175
96,2020-04-27|Black’s Beach 9 miles north of Mackay Queensland AUSTRALIA,0.9345244374557778,-0.9773940556912897,0.0709502577145688,0.2094274531479945,0.7218893072028385,0.5211241718537941,0.22828144292819644,2020-04-27,Black’s Beach 9 miles north of Mackay Queensland AUSTRALIA,Black’s Beach,Queensland,AUSTRALIA,-21.062778,149.1875
97,2020-04-27|Blairgowrie Victoria AUSTRALIA,1.0853647889684432,-1.0040471117102283,0.12231666373553884,0.12073384534476568,0.6724087575584977,0.45213353724136257,0.19410768859093025,2020-04-27,Blairgowrie Victoria AUSTRALIA,Blairgowrie,Victoria,AUSTRALIA,-38.36,144.769
98,2020-04-27|Blue Bay New South Wales AUSTRALIA,0.6422593800772495,-0.465478228640385,0.06789329655881972,0.09134764475219592,0.36100029017833857,0.13032120950884465,0.10012346589964453,2020-04-27,Blue Bay New South Wales AUSTRALIA,Blue Bay,New South Wales,AUSTRALIA,-33.353,151.501
99,2020-04-27|Boarding School Bay Victoria AUSTRALIA,0.2960058191803291,-0.3712421475669054,0.021349450473729534,0.05182501204981958,0.23438764119775904,0.05493756634624943,0.07812921373258634,2020-04-27,Boarding School Bay Victoria AUSTRALIA,Boarding School Bay,Victoria,AUSTRALIA,-37.471307700000004,144.7851531
100,2020-04-27|Boat Harbour north of Cronulla New South Wales AUSTRALIA,0.6524657371088484,-0.46238768391001644,0.07022180640514,0.10017725545201682,0.3658228173520234,0.13382633369537186,0.10146099428441677,2020-04-27,Boat Harbour north of Cronulla New South Wales AUSTRALIA,Boat Harbour,New South Wales,AUSTRALIA,-32.7844827,152.110421
101,2020-04-27|Bombo Beach New South Wales AUSTRALIA,0.618479387662831,-0.4700831342991837,0.05799260306296899,0.07183055684990682,0.3506131674635123,0.12292959319879693,0.0972425963955797,2020-04-27,Bombo Beach New South Wales AUSTRALIA,Bombo Beach,New South Wales,AUSTRALIA,-34.656041200000004,150.8556659
102,2020-04-27|Bondi Beach New South Wales AUSTRALIA,0.6300803010871231,-0.4657548917338656,0.0633809838629394,0.08388338532091576,0.3555483355129545,0.12641461888603248,0.09861136573829474,2020-04-27,Bondi Beach New South Wales AUSTRALIA,Bondi Beach,New South Wales,AUSTRALIA,-33.8914755,151.2766845
103,2020-04-27|Bondi Beach Sydney New South Wales AUSTRALIA,0.6300803010871231,-0.4657548917338656,0.0633809838629394,0.08388338532091576,0.3555483355129545,0.12641461888603248,0.09861136573829474,2020-04-27,Bondi Beach Sydney New South Wales AUSTRALIA,Bondi Beach,New South Wales,AUSTRALIA,-33.8914755,151.2766845
104,2020-04-27|Bondi New South Wales AUSTRALIA,0.6300803010871231,-0.4657548917338656,0.0633809838629394,0.08388338532091576,0.3555483355129545,0.12641461888603248,0.09861136573829474,2020-04-27,Bondi New South Wales AUSTRALIA,Bondi,New South Wales,AUSTRALIA,-33.89195,151.26099
105,2020-04-27|Bondi Sydney New South Wales AUSTRALIA,0.6300803010871231,-0.4657548917338656,0.0633809838629394,0.08388338532091576,0.3555483355129545,0.12641461888603248,0.09861136573829474,2020-04-27,Bondi Sydney New South Wales AUSTRALIA,Bondi,New South Wales,AUSTRALIA,-33.89195,151.26099
106,2020-04-27|Boot Reef Torres Strait Queensland AUSTRALIA,0.9180020846211133,-1.5426210631687536,0.08731743671234564,0.30421670677656365,0.8465774508469704,0.7166933802825546,0.2347983390523344,2020-04-27,Boot Reef Torres Strait Queensland AUSTRALIA,Boot Reef,Queensland,AUSTRALIA,-10.2199025,141.93685449999998
107,2020-04-27|Booti Booti National Park New South Wales AUSTRALIA,0.6663343140573,-0.45613824464482977,0.07460101707114461,0.10373228944880593,0.37020251542913607,0.13704990243005974,0.1026757039758076,2020-04-27,Booti Booti National Park New South Wales AUSTRALIA,Booti Booti National Park,New South Wales,AUSTRALIA,-32.312709600000005,152.5179343
108,2020-04-27|Botany Bay New South Wales AUSTRALIA,0.6260637319303713,-0.4667308548425874,0.06111634862328692,0.08045314660960584,0.35392795164863666,0.12526499495819968,0.09816195211454609,2020-04-27,Botany Bay New South Wales AUSTRALIA,Botany Bay,New South Wales,AUSTRALIA,-33.9930374,151.175278
109,2020-04-27|Botany Bay Sydney New South Wales AUSTRALIA,0.6260637319303713,-0.4667308548425874,0.06111634862328692,0.08045314660960584,0.35392795164863666,0.12526499495819968,0.09816195211454609,2020-04-27,Botany Bay Sydney New South Wales AUSTRALIA,Botany Bay,New South Wales,AUSTRALIA,-33.9930374,151.175278
110,2020-04-27|Botany Bay? New South Wales AUSTRALIA,0.6260637319303713,-0.4667308548425874,0.06111634862328692,0.08045314660960584,0.35392795164863666,0.12526499495819968,0.09816195211454609,2020-04-27,Botany Bay? New South Wales AUSTRALIA,Botany Bay?,New South Wales,AUSTRALIA,-33.9930374,151.175278
111,2020-04-27|Bowen Queensland AUSTRALIA,0.5892961779343912,-0.550919297517274,-0.008644481524435855,-0.03245980986119722,0.3196693414823687,0.10218848788377126,0.09638393297063726,2020-04-27,Bowen Queensland AUSTRALIA,Bowen,Queensland,AUSTRALIA,-20.012102399999996,148.24627900000002
112,2020-04-27|Boyup Brook Western Australia AUSTRALIA,0.3140557191202061,-0.21574445033022957,-0.0013312534212011617,-0.05176983297534882,0.18367207701319221,0.03373543187434001,0.0530215615530921,2020-04-27,Boyup Brook Western Australia AUSTRALIA,Boyup Brook,Western Australia,AUSTRALIA,-33.829471500000004,116.3841139
113,2020-04-27|Bradleys Head Sydney New South Wales AUSTRALIA,0.6315376362736688,-0.465458366516061,0.06385605715113238,0.0845437523152989,0.3561202751447366,0.1268216503691629,0.098769993251284,2020-04-27,Bradleys Head Sydney New South Wales AUSTRALIA,Bradleys Head,New South Wales,AUSTRALIA,-33.843012,151.2441915
114,2020-04-27|Bramble Reef Queensland AUSTRALIA,0.5558141162114445,-0.6224595091586013,0.015014690389989687,0.06809909027413065,0.3639395097312716,0.13245196674343832,0.10093865873102502,2020-04-27,Bramble Reef Queensland AUSTRALIA,Bramble Reef,Queensland,AUSTRALIA,-18.4082815,146.70503100000002
115,2020-04-27|Bribie Island Queensland AUSTRALIA,0.7373725963869118,-0.5529441622833646,0.05292670000828661,0.06244865552476297,0.42710651926303284,0.18241997879698346,0.12329503193457805,2020-04-27,Bribie Island Queensland AUSTRALIA,Bribie Island,Queensland,AUSTRALIA,-26.986100300000004,153.1325243
116,2020-04-27|Bribie Passage Caloundra Queensland AUSTRALIA,0.6976935365735604,-0.5066271360926207,0.07345400934940936,0.08720390014935109,0.3966312595824591,0.15731635607796804,0.11449758224447655,2020-04-27,Bribie Passage Caloundra Queensland AUSTRALIA,Bribie Passage,Queensland,AUSTRALIA,-26.804309999999997,153.128613
117,2020-04-27|Brible Island Queensland AUSTRALIA,0.7373725963869118,-0.5529441622833646,0.05292670000828661,0.06244865552476297,0.42710651926303284,0.18241997879698346,0.12329503193457805,2020-04-27,Brible Island Queensland AUSTRALIA,Brible Island,Queensland,AUSTRALIA,-26.986100300000004,153.1325243
118,2020-04-27|Bridport Tasmania AUSTRALIA,1.0535494953029043,-1.1714272551863276,0.1408688205908769,0.16665900653588855,0.784856578754361,0.6159998492140004,0.22656857850953954,2020-04-27,Bridport Tasmania AUSTRALIA,Bridport,Tasmania,AUSTRALIA,-41.014520700000006,147.4070438
119,2020-04-27|Brighton Beach Adelaide South Australia AUSTRALIA,1.221992136857959,-1.02761628766497,0.08879134830921323,0.20907939642783965,0.7498369972450439,0.562255522437464,0.20796736475438124,2020-04-27,Brighton Beach Adelaide South Australia AUSTRALIA,Brighton Beach,South Australia,AUSTRALIA,-35.0244116,138.51712980000002
120,2020-04-27|Brighton Victoria AUSTRALIA,0.29738929625799,-0.3727052894406075,0.02073971460455954,0.05015050777263484,0.23581847954737,0.05561035529603337,0.07860615984912334,2020-04-27,Brighton Victoria AUSTRALIA,Brighton,Victoria,AUSTRALIA,-37.9043383,144.9931825
121,2020-04-27|Brisbane Queensland AUSTRALIA,0.9316332076562042,-0.6981712229324042,0.11600931244975707,0.16747950870977427,0.5808963310493035,0.337440547426542,0.16111165440978217,2020-04-27,Brisbane Queensland AUSTRALIA,Brisbane,Queensland,AUSTRALIA,-27.469770699999998,153.0251235
122,2020-04-27|Brisbane River Queensland AUSTRALIA,0.692168359900246,-0.5003901976296329,0.07507501705451188,0.08731145968942955,0.3923638403219293,0.1539493831921724,0.11326568441507061,2020-04-27,Brisbane River Queensland AUSTRALIA,Brisbane River,Queensland,AUSTRALIA,-26.895106800000004,152.318608
123,2020-04-27|Broken Head Beach New South Wales AUSTRALIA,0.6906146007229941,-0.4609974161318518,0.07257597446607034,0.05550462566354891,0.3899539438563125,0.15206407832909213,0.11257000722849912,2020-04-27,Broken Head Beach New South Wales AUSTRALIA,Broken Head Beach,New South Wales,AUSTRALIA,-28.701846399999997,153.6139946
124,2020-04-27|Broken Head New South Wales AUSTRALIA,0.6915949396494638,-0.45950812115255796,0.07136281634844645,0.051887019838512925,0.39050910968306285,0.1524973647454584,0.11273026979825872,2020-04-27,Broken Head New South Wales AUSTRALIA,Broken Head,New South Wales,AUSTRALIA,-28.7264578,153.5983166
125,2020-04-27|Bronte Beach New South Wales AUSTRALIA,0.6300803010871231,-0.4657548917338656,0.0633809838629394,0.08388338532091576,0.3555483355129545,0.12641461888603248,0.09861136573829474,2020-04-27,Bronte Beach New South Wales AUSTRALIA,Bronte Beach,New South Wales,AUSTRALIA,-33.90532,151.26068999999998
126,2020-04-27|Bronte New South Wales AUSTRALIA,0.6300803010871231,-0.4657548917338656,0.0633809838629394,0.08388338532091576,0.3555483355129545,0.12641461888603248,0.09861136573829474,2020-04-27,Bronte New South Wales AUSTRALIA,Bronte,New South Wales,AUSTRALIA,-33.90532,151.26068999999998
127,2020-04-27|Broome Head New South Wales AUSTRALIA,0.6856143225087492,-0.4443031132099122,0.08199475899247861,0.1355957550591104,0.37769037103355707,0.142650016371466,0.10475246146234686,2020-04-27,Broome Head New South Wales AUSTRALIA,Broome Head,New South Wales,AUSTRALIA,-29.6430001,153.30745190000002
128,2020-04-27|Broome Western Australia AUSTRALIA,3.6191407092719565,-3.1999595436371067,0.7891725955740053,1.3973202923327088,2.4957684219295144,6.22886001590054,0.7204662851179864,2020-04-27,Broome Western Australia AUSTRALIA,Broome,Western Australia,AUSTRALIA,-17.964429100000004,122.23036570000001
129,2020-04-27|Broomfield Island Queensland AUSTRALIA,1.079060852697347,-0.7759840918232225,0.14709877594873202,0.217858340209521,0.6144463624866608,0.37754433237308904,0.17737538639213002,2020-04-27,Broomfield Island Queensland AUSTRALIA,Broomfield Island,Queensland,AUSTRALIA,-26.9601877,149.0840869
130,2020-04-27|Broomfield Reef Queensland AUSTRALIA,0.9514265826212491,-0.6142581150861433,0.11652687457970005,0.1441582205248362,0.511078017009607,0.2612007394704721,0.14753551534869838,2020-04-27,Broomfield Reef Queensland AUSTRALIA,Broomfield Reef,Queensland,AUSTRALIA,-23.2670335,151.93534019999998
131,2020-04-27|Broughton Island New South Wales AUSTRALIA,0.6556611121579473,-0.4615680085549757,0.0709763744242375,0.10062745641430688,0.36694368842030717,0.13464767047149948,0.10177186798517686,2020-04-27,Broughton Island New South Wales AUSTRALIA,Broughton Island,New South Wales,AUSTRALIA,-32.6157855,152.31398269999997
132,2020-04-27|Browns Inlet Broadwater Queensland AUSTRALIA,1.1259650002932697,-0.8163396313496025,0.171141498215033,0.17413237724111336,0.727028752524848,0.5285708069978367,0.2299066782409412,2020-04-27,Browns Inlet Broadwater Queensland AUSTRALIA,Brown's Inlet,Queensland,AUSTRALIA,-20.9175738,142.7027956
133,2020-04-27|Brunswick Heads New South Wales AUSTRALIA,0.6872661610249707,-0.4603311783456409,0.07413589303235735,0.05871059208321214,0.38762235023877195,0.15025108640462917,0.1118969341271352,2020-04-27,Brunswick Heads New South Wales AUSTRALIA,Brunswick Heads,New South Wales,AUSTRALIA,-28.5557919,153.54363940000002
134,2020-04-27|Buddina Beach south of Noosa Queensland AUSTRALIA,0.6911270233496084,-0.49800687311433495,0.07801354339835302,0.08953088862469673,0.39069277221428994,0.15264084226048705,0.11278328860418073,2020-04-27,Buddina Beach south of Noosa Queensland AUSTRALIA,Buddina Beach,Queensland,AUSTRALIA,-26.3864103,153.0923901
135,2020-04-27|Bullcock Beach Queensland AUSTRALIA,0.6976935365735604,-0.5066271360926207,0.07345400934940936,0.08720390014935109,0.3966312595824591,0.15731635607796804,0.11449758224447655,2020-04-27,Bullcock Beach Queensland AUSTRALIA,Bullcock Beach,Queensland,AUSTRALIA,-26.806945199999998,153.131696
136,2020-04-27|Bunbury Western Australia AUSTRALIA,0.31147513748180466,-0.21246610508220565,-0.0005786594095041111,-0.051081944695786106,0.18159960233054792,0.03297841556661314,0.05242328964513542,2020-04-27,Bunbury Western Australia AUSTRALIA,Bunbury,Western Australia,AUSTRALIA,-33.3209971,115.63834820000001
137,2020-04-27|Bundegi Sanctuary Zone Ningaloo Western Australia AUSTRALIA,0.5654174417813692,-0.49531128150937065,0.0824670339535351,0.1507607112032268,0.3321476708293686,0.11032207523737457,0.09588277358202159,2020-04-27,Bundegi Sanctuary Zone Ningaloo Western Australia AUSTRALIA,Bundegi Sanctuary Zone,Western Australia,AUSTRALIA,-22.6799051,113.69804909999999
138,2020-04-27|Bunker Bay Western Australia AUSTRALIA,0.30780321099912056,-0.210615501814641,0.016012507016659513,-0.04945273181048633,0.18594775567140076,0.03457656783923096,0.049696628111566624,2020-04-27,Bunker Bay Western Australia AUSTRALIA,Bunker Bay,Western Australia,AUSTRALIA,-33.5426804,115.0391851
139,2020-04-27|Burleigh Heads Brisbane Queensland AUSTRALIA,0.6927556572659692,-0.4608689956917844,0.07740891230316549,0.05830139346913468,0.3887426245078311,0.15112082810923655,0.11222032945253896,2020-04-27,Burleigh Heads Brisbane Queensland AUSTRALIA,Burleigh Heads,Queensland,AUSTRALIA,-28.104,153.436
140,2020-04-27|Burleigh Lake on the Gold Coast Queensland AUSTRALIA,0.6929978003898897,-0.46215046070933596,0.0773611397755815,0.05874563782769027,0.3887427760248487,0.15112094591150568,0.1122203731917344,2020-04-27,Burleigh Lake on the Gold Coast Queensland AUSTRALIA,Burleigh Lake on the Gold Coast,Queensland,AUSTRALIA,-28.087777799999998,153.4408333
141,2020-04-27|Burnett River Queensland AUSTRALIA,0.9229977886565616,-0.606254548961707,0.12990064113419497,0.15127972605900167,0.5208986179190459,0.27133537014997217,0.15705684267747028,2020-04-27,Burnett River Queensland AUSTRALIA,Burnett River,Queensland,AUSTRALIA,-25.3273915,151.813121
142,2020-04-27|Burns Beach Perth Western Australia AUSTRALIA,0.29178151294707233,-0.19610606219257132,0.013096477926805707,-0.0534790731051705,0.1698614945001185,0.028852927313813788,0.04539739397320212,2020-04-27,Burns Beach Perth Western Australia AUSTRALIA,Burns Beach,Western Australia,AUSTRALIA,-31.724687199999998,115.7248959
143,2020-04-27|Bushrangers Pass at Bass Point New South Wales AUSTRALIA,0.618479387662831,-0.4700831342991837,0.05799260306296899,0.07183055684990682,0.3506131674635123,0.12292959319879693,0.0972425963955797,2020-04-27,Bushrangers Pass at Bass Point New South Wales AUSTRALIA,Bushrangers Pass at Bass Point,New South Wales,AUSTRALIA,-34.5973075,150.8997956
144,2020-04-27|Bushy Ilet Queensland AUSTRALIA,1.1485742831258186,-1.0609259781060454,-0.010363861138739631,-0.025319654433486653,0.759000909029998,0.5760823799083632,0.22884738461737952,2020-04-27,Bushy Ilet Queensland AUSTRALIA,Bushy Ilet,Queensland,AUSTRALIA,-20.9539613,150.0725668
145,2020-04-27|Busselton Western Australia AUSTRALIA,0.31377756695257736,-0.21887887822144328,-0.0026763331378679305,-0.05210180862590643,0.18486822079414006,0.03417625905959092,0.05336685852005197,2020-04-27,Busselton Western Australia AUSTRALIA,Busselton,Western Australia,AUSTRALIA,-33.653158399999995,115.3454892
146,2020-04-27|Byron Bay New South Wales AUSTRALIA,0.6891744161791671,-0.4612831382095517,0.07364348954154419,0.0581802216689572,0.38907220049655633,0.15137717719923252,0.11231546984544342,2020-04-27,Byron Bay New South Wales AUSTRALIA,Byron Bay,New South Wales,AUSTRALIA,-28.647367100000004,153.601977
147,2020-04-27|Cabbage Tree Creek Sandgate Queensland AUSTRALIA,0.881089374810061,-0.6187016484876403,0.08643280484659425,0.11566719914560444,0.5050430939694553,0.2550685267662401,0.14579338312781326,2020-04-27,Cabbage Tree Creek Sandgate Queensland AUSTRALIA,Cabbage Tree Creek,Queensland,AUSTRALIA,-27.357138199999998,153.00638469999998
148,2020-04-27|Cabramatta Creek George’s River New South Wales AUSTRALIA,0.6239769596959759,-0.4674357645615324,0.05994245317691764,0.07804740890859133,0.35301564284299536,0.12462004409185327,0.09790892317779247,2020-04-27,Cabramatta Creek George’s River New South Wales AUSTRALIA,Cabramatta Creek,New South Wales,AUSTRALIA,-33.9224412,150.9010938
149,2020-04-27|Cactus Beach South Australia AUSTRALIA,0.7491973919987815,-0.5530507723081521,0.11827583860096731,0.10618801365249228,0.4399302399187853,0.193538615995,0.12699692122088369,2020-04-27,Cactus Beach South Australia AUSTRALIA,Cactus Beach,South Australia,AUSTRALIA,-32.083500300000004,132.982204
150,2020-04-27|Cactus Beach near Ceduna South Australia AUSTRALIA,0.7491973919987815,-0.5530507723081521,0.11827583860096731,0.10618801365249228,0.4399302399187853,0.193538615995,0.12699692122088369,2020-04-27,Cactus Beach near Ceduna South Australia AUSTRALIA,Cactus Beach,South Australia,AUSTRALIA,-32.083500300000004,132.982204
151,2020-04-27|Cactus Beach near Penong South Australia AUSTRALIA,0.7491973919987815,-0.5530507723081521,0.11827583860096731,0.10618801365249228,0.4399302399187853,0.193538615995,0.12699692122088369,2020-04-27,Cactus Beach near Penong South Australia AUSTRALIA,Cactus Beach near Penong,South Australia,AUSTRALIA,-32.083500300000004,132.982204
152,2020-04-27|Cairns Aquarium Queensland AUSTRALIA,0.4638256391714392,-0.5442588885716045,0.014692359422508244,0.08719906498475558,0.3356011198110736,0.11262811161844659,0.10118754487603995,2020-04-27,Cairns Aquarium Queensland AUSTRALIA,Cairns Aquarium,Queensland,AUSTRALIA,-16.9184171,145.7738313
153,2020-04-27|Calliope River Queensland AUSTRALIA,1.099029645583632,-0.7874090561351443,0.1551381270598329,0.23038097787199768,0.6264796779969006,0.39247678694310034,0.18084910536667034,2020-04-27,Calliope River Queensland AUSTRALIA,Calliope River,Queensland,AUSTRALIA,-23.9815319,151.0075239
154,2020-04-27|Caloundra Heads Queensland AUSTRALIA,0.6976935365735604,-0.5066271360926207,0.07345400934940936,0.08720390014935109,0.3966312595824591,0.15731635607796804,0.11449758224447655,2020-04-27,Caloundra Heads Queensland AUSTRALIA,Caloundra Heads,Queensland,AUSTRALIA,-26.799,153.13299999999998
155,2020-04-27|Caloundra Queensland AUSTRALIA,0.6976935365735604,-0.5066271360926207,0.07345400934940936,0.08720390014935109,0.3966312595824591,0.15731635607796804,0.11449758224447655,2020-04-27,Caloundra Queensland AUSTRALIA,Caloundra,Queensland,AUSTRALIA,-26.799,153.13299999999998
156,2020-04-27|Canadian Bay near Mount Eliza Victoria AUSTRALIA,0.3035376654210115,-0.37546751863757877,0.021762088344608785,0.05171621517527296,0.23852624234104242,0.05689476828533769,0.07950874744701414,2020-04-27,Canadian Bay near Mount Eliza Victoria AUSTRALIA,Canadian Bay near Mount Eliza,Victoria,AUSTRALIA,-38.191611,145.09546559999998
157,2020-04-27|Cape Douglas South Australia AUSTRALIA,0.465003171668014,-0.3458620771000663,0.07279661054660157,0.04578602694331656,0.246719645174426,0.06087058331499466,0.0712218267779119,2020-04-27,Cape Douglas South Australia AUSTRALIA,Cape Douglas,South Australia,AUSTRALIA,-38.0146455,140.5819172
158,2020-04-27|Cape Elizabeth South Australia AUSTRALIA,0.672754232469017,-0.381918574061975,0.011804194495085237,-0.10858918593940153,0.3677677947279144,0.13525315083903336,0.10200043395044694,2020-04-27,Cape Elizabeth South Australia AUSTRALIA,Cape Elizabeth,South Australia,AUSTRALIA,-34.1333333,137.45
159,2020-04-27|Cape Howe New South Wales AUSTRALIA,0.5688007344726682,-0.47614244936903277,0.06619444445697618,0.08358161423335551,0.3278696546504531,0.10749851044060739,0.09464781668577436,2020-04-27,Cape Howe New South Wales AUSTRALIA,Cape Howe,New South Wales,AUSTRALIA,-37.5021775,149.9781828
160,2020-04-27|Cape Jervis South Australia AUSTRALIA,0.5979828900629436,-0.43179127483707547,-0.01947166963072546,-0.05685639563761968,0.31726814036985973,0.10065907289374902,0.0847934772144941,2020-04-27,Cape Jervis South Australia AUSTRALIA,Cape Jervis,South Australia,AUSTRALIA,-35.6061701,138.11540459999998
161,2020-04-27|Cape Levêque Western Australia AUSTRALIA,3.0490750721985367,-2.7897716272448703,0.7830726701752013,1.3108292076755044,2.082999827432847,4.338888281085271,0.6013102555451492,2020-04-27,Cape Levêque Western Australia AUSTRALIA,Cape Levêque,Western Australia,AUSTRALIA,-16.4,122.93333329999999
162,2020-04-27|Cape Moreton Queensland AUSTRALIA,0.6868447383067325,-0.48841840172651246,0.0803965286182256,0.08550554629907213,0.38606329380147275,0.14904486682084228,0.11144687330025695,2020-04-27,Cape Moreton Queensland AUSTRALIA,Cape Moreton,Queensland,AUSTRALIA,-27.0333333,153.4666667
163,2020-04-27|Cape Nelson Victoria AUSTRALIA,0.4603435457073085,-0.3480702454426085,0.07620221679079114,0.004710884317613148,0.26978079011761413,0.07278167471648417,0.08531217657315054,2020-04-27,Cape Nelson Victoria AUSTRALIA,Cape Nelson,Victoria,AUSTRALIA,-38.384739399999994,141.565049
164,2020-04-27|Cape Pillar Storm Bay Tasmania AUSTRALIA,0.35552408143917724,-0.3771563053794356,0.06286960522957605,0.08586714158058685,0.22770263341493502,0.05184848926409628,0.060856088593205036,2020-04-27,Cape Pillar Storm Bay Tasmania AUSTRALIA,Cape Pillar,Tasmania,AUSTRALIA,-43.17,147.44
165,2020-04-27|Carnac Island Western Australia AUSTRALIA,0.2913222516170022,-0.19910666286600914,-0.0007950703725939145,-0.08191228806590856,0.1733901998536323,0.030064161405282553,0.04476915709524624,2020-04-27,Carnac Island Western Australia AUSTRALIA,Carnac Island,Western Australia,AUSTRALIA,-32.12095789999999,115.66209009999999
166,2020-04-27|Carnarvon Western Australia AUSTRALIA,0.5724885567638308,-0.5018888582771227,0.09753202232327444,0.1086861616376017,0.3414414557908092,0.11658226773254711,0.0985656582066607,2020-04-27,Carnarvon Western Australia AUSTRALIA,Carnarvon,Western Australia,AUSTRALIA,-24.8877473,113.6621827
167,2020-04-27|Carrara Nerang River Queensland AUSTRALIA,0.6930800704080875,-0.4630700662158283,0.0772738570915837,0.0588760488574908,0.3886084927646374,0.15101656064880323,0.11218160895351907,2020-04-27,Carrara Nerang River Queensland AUSTRALIA,Carrara,Queensland,AUSTRALIA,-28.0211196,153.3618544
168,2020-04-27|Carrickalinga Head South Australia AUSTRALIA,1.0563882480202158,-0.8490807869146704,0.029897308929996702,0.01051976518680036,0.6346782840082653,0.40281652419167624,0.16962490639889538,2020-04-27,Carrickalinga Head South Australia AUSTRALIA,Carrickalinga Head,South Australia,AUSTRALIA,-35.428351899999996,138.3308642
169,2020-04-27|Carrum Victoria AUSTRALIA,0.30217466994209324,-0.3748963173084062,0.022056790639427018,0.051662481245078114,0.23817125092480262,0.0567255447670853,0.07939041697493421,2020-04-27,Carrum Victoria AUSTRALIA,Carrum,Victoria,AUSTRALIA,-38.076,145.122
170,2020-04-27|Castle Rock north of Dunsborough Western Australia AUSTRALIA,0.30780321099912056,-0.210615501814641,0.016012507016659513,-0.04945273181048633,0.18594775567140076,0.03457656783923096,0.049696628111566624,2020-04-27,Castle Rock north of Dunsborough Western Australia AUSTRALIA,Castle Rock,Western Australia,AUSTRALIA,-33.583762899999996,115.09000060000001
171,2020-04-27|Cathedral Rock Victoria AUSTRALIA,0.4156778054760733,-0.1962316994485515,0.0399439903068148,-0.059539959243577946,0.22245379763225206,0.04948569208101096,0.06707234363053005,2020-04-27,Cathedral Rock Victoria AUSTRALIA,Cathedral Rock,Victoria,AUSTRALIA,-31.434438800000002,120.85630420000001
172,2020-04-27|Catseye Beach Hamilton Island Whitsundays Queensland AUSTRALIA,0.7631092945974777,-0.8441794962798744,-0.025253869342951304,0.02163731651101058,0.5195483981950085,0.2699305380669992,0.15664973611300037,2020-04-27,Catseye Beach Hamilton Island Whitsundays Queensland AUSTRALIA,Catseye Beach,Queensland,AUSTRALIA,-20.3464395,148.9574515
173,2020-04-27|Cave at Shell Harbour New South Wales AUSTRALIA,0.618479387662831,-0.4700831342991837,0.05799260306296899,0.07183055684990682,0.3506131674635123,0.12292959319879693,0.0972425963955797,2020-04-27,Cave at Shell Harbour New South Wales AUSTRALIA,Cave at Shell Harbour,New South Wales,AUSTRALIA,-34.64434779999999,150.8558397
174,2020-04-27|Caves Beach New South Wales AUSTRALIA,0.6479920448077037,-0.4648689018449496,0.06965083617487802,0.09544949094300406,0.36363382529160765,0.13222955889620744,0.10085387712169273,2020-04-27,Caves Beach New South Wales AUSTRALIA,Caves Beach,New South Wales,AUSTRALIA,-33.1063425,151.6450391
175,2020-04-27|Ceduna South Australia AUSTRALIA,0.8039586685257846,-0.6227671030188805,0.106391474638435,0.10637047211557657,0.4829218525855746,0.2332135157046834,0.13940753079391713,2020-04-27,Ceduna South Australia AUSTRALIA,Ceduna,South Australia,AUSTRALIA,-32.130585100000005,133.6817145
176,2020-04-27|Cellito Beach New South Wales AUSTRALIA,0.6640960457029007,-0.4566862317783982,0.07408026505546565,0.10328248927288046,0.3693781289863839,0.13644020217348166,0.10244706031502758,2020-04-27,Cellito Beach New South Wales AUSTRALIA,Cellito Beach,New South Wales,AUSTRALIA,-32.3789104,152.529459
177,2020-04-27|Charles Street Wharf Parramatta River New South Wales AUSTRALIA,0.6315376362736688,-0.465458366516061,0.06385605715113238,0.0845437523152989,0.3561202751447366,0.1268216503691629,0.098769993251284,2020-04-27,Charles Street Wharf Parramatta River New South Wales AUSTRALIA,Charles Street Wharf,New South Wales,AUSTRALIA,-33.834442700000004,151.0923358
178,2020-04-27|Cheviot Beach Portsea Port Phillip Bay Victoria AUSTRALIA,0.847975943288932,-0.8054008440591632,0.07675551540740774,0.06830554226489753,0.5333280409622533,0.28443879927663496,0.15395854400796635,2020-04-27,Cheviot Beach Portsea Port Phillip Bay Victoria AUSTRALIA,Cheviot Beach,Victoria,AUSTRALIA,-38.3136027,144.66766669999998
179,2020-04-27|Cheynes Beach Western Australia AUSTRALIA,0.37766505876031786,-0.17607242389496328,0.0445152061252076,-0.051029488522476386,0.21200023464293924,0.04494409948866129,0.063920475797994,2020-04-27,Cheynes Beach Western Australia AUSTRALIA,Cheynes Beach,Western Australia,AUSTRALIA,-34.88414,118.404629
180,2020-04-27|Chimney Point George’s Bay Tasmania AUSTRALIA,0.4863481798833592,-0.4588110885624931,0.05250364185320363,0.10356697754900371,0.2879975800606734,0.08294260612080397,0.07987615708602333,2020-04-27,Chimney Point George’s Bay Tasmania AUSTRALIA,Chimney Point,Tasmania,AUSTRALIA,-41.31,148.29
181,2020-04-27|Chowder Bay Sydney New South Wales AUSTRALIA,0.6315376362736688,-0.465458366516061,0.06385605715113238,0.0845437523152989,0.3561202751447366,0.1268216503691629,0.098769993251284,2020-04-27,Chowder Bay Sydney New South Wales AUSTRALIA,Chowder Bay,New South Wales,AUSTRALIA,-33.833420600000004,151.25995830000002
182,2020-04-27|Cid Harbor Whitsundays Queensland AUSTRALIA,0.7362427278961955,-0.7523571754549275,-0.08675076878089154,-0.05132254901749707,0.44886474242965535,0.20147955699644082,0.1295760899357468,2020-04-27,Cid Harbor Whitsundays Queensland AUSTRALIA,Cid Harbor,Queensland,AUSTRALIA,-20.25,148.93333330000002
183,2020-04-27|City Beach Perth Western Australia AUSTRALIA,0.29276859938109767,-0.1941166800785846,0.012647414320159683,-0.05568845357258363,0.17071805398741904,0.02914465395725132,0.04562631912554993,2020-04-27,City Beach Perth Western Australia AUSTRALIA,City Beach,Western Australia,AUSTRALIA,-31.9339651,115.76420859999999
184,2020-04-27|Clairview Queensland AUSTRALIA,2.96185614574513,-2.225003565541968,0.31200032034280784,0.849730192064663,1.8416557363171702,3.391695851109938,0.5552800973063413,2020-04-27,Clairview Queensland AUSTRALIA,Clairview,Queensland,AUSTRALIA,-22.0422664,149.4835735
185,2020-04-27|Clarence Head New South Wales AUSTRALIA,0.6923368935754287,-0.447625864557631,0.0828609741683691,0.13419641809780594,0.3803239437374749,0.144646302180026,0.10548288311016517,2020-04-27,Clarence Head New South Wales AUSTRALIA,Clarence Head,New South Wales,AUSTRALIA,-29.431929999999998,153.36539969999998
186,2020-04-27|Clarence Heads New South Wales AUSTRALIA,0.6227526108455902,-0.4683204269333722,0.05918301273086027,0.0762420788316424,0.35253705153155207,0.1242823727025602,0.09777618583060782,2020-04-27,Clarence Heads New South Wales AUSTRALIA,Clarence Heads,New South Wales,AUSTRALIA,-33.482099100000006,150.22437649999998
187,2020-04-27|Clarence River New South Wales AUSTRALIA,0.6923368935754287,-0.447625864557631,0.0828609741683691,0.13419641809780594,0.3803239437374749,0.144646302180026,0.10548288311016517,2020-04-27,Clarence River New South Wales AUSTRALIA,Clarence River,New South Wales,AUSTRALIA,-29.4612304,153.14638190000002
188,2020-04-27|Clark Island Sydney Harbour New South Wales AUSTRALIA,0.6300803010871231,-0.4657548917338656,0.0633809838629394,0.08388338532091576,0.3555483355129545,0.12641461888603248,0.09861136573829474,2020-04-27,Clark Island Sydney Harbour New South Wales AUSTRALIA,Clark Island,New South Wales,AUSTRALIA,-33.8626215,151.241028
189,2020-04-27|Clarkes Beach Byron Bay New South Wales AUSTRALIA,0.6891744161791671,-0.4612831382095517,0.07364348954154419,0.0581802216689572,0.38907220049655633,0.15137717719923252,0.11231546984544342,2020-04-27,Clarkes Beach Byron Bay New South Wales AUSTRALIA,Clarkes Beach,New South Wales,AUSTRALIA,-28.6396907,153.6272755
190,2020-04-27|Clarks Beach Byron Bay New South Wales AUSTRALIA,0.6891744161791671,-0.4612831382095517,0.07364348954154419,0.0581802216689572,0.38907220049655633,0.15137717719923252,0.11231546984544342,2020-04-27,Clarks Beach Byron Bay New South Wales AUSTRALIA,Clarks Beach,New South Wales,AUSTRALIA,-28.6396907,153.6272755
191,2020-04-27|Clarks Island Sydney Harbor New South Wales AUSTRALIA,0.6300803010871231,-0.4657548917338656,0.0633809838629394,0.08388338532091576,0.3555483355129545,0.12641461888603248,0.09861136573829474,2020-04-27,Clarks Island Sydney Harbor New South Wales AUSTRALIA,Clark's Island,New South Wales,AUSTRALIA,-33.8626215,151.241028
192,2020-04-27|Cleveland Queensland AUSTRALIA,0.967273404858533,-0.737157781369903,0.0936077213762223,0.1396574407163436,0.606102497133212,0.36736023703111526,0.16810258704619704,2020-04-27,Cleveland Queensland AUSTRALIA,Cleveland,Queensland,AUSTRALIA,-27.533333000000002,153.26666699999998
193,2020-04-27|Clifton Beach Tasmania AUSTRALIA,0.36323709343866034,-0.39740879404680796,0.059986315821935095,0.08872234865366165,0.23366523678181322,0.05459944288030084,0.062449661374068106,2020-04-27,Clifton Beach Tasmania AUSTRALIA,Clifton Beach,Tasmania,AUSTRALIA,-42.989444,147.52166699999998
194,2020-04-27|Clifton Beach southwest of Hobart Tasmania AUSTRALIA,0.36323709343866034,-0.39740879404680796,0.059986315821935095,0.08872234865366165,0.23366523678181322,0.05459944288030084,0.062449661374068106,2020-04-27,Clifton Beach southwest of Hobart Tasmania AUSTRALIA,Clifton Beach,Tasmania,AUSTRALIA,-42.989444,147.52166699999998
195,2020-04-27|Coalcliff New South Wales AUSTRALIA,0.6227526108455902,-0.4683204269333722,0.05918301273086027,0.0762420788316424,0.35253705153155207,0.1242823727025602,0.09777618583060782,2020-04-27,Coalcliff New South Wales AUSTRALIA,Coalcliff,New South Wales,AUSTRALIA,-34.245726399999995,150.97291940000002
196,2020-04-27|Cobblestones Margaret River Area Western Australia AUSTRALIA,0.31926637548733494,-0.1848776762796528,0.02646864500532592,-0.02916327679968882,0.18879158716662398,0.03564226338489298,0.052361365223499386,2020-04-27,Cobblestones Margaret River Area Western Australia AUSTRALIA,Cobblestones,Western Australia,AUSTRALIA,-33.9610465,115.0767388
197,2020-04-27|Cockatoo Island Sydney New South Wales AUSTRALIA,0.6300803010871231,-0.4657548917338656,0.0633809838629394,0.08388338532091576,0.3555483355129545,0.12641461888603248,0.09861136573829474,2020-04-27,Cockatoo Island Sydney New South Wales AUSTRALIA,Cockatoo Island,New South Wales,AUSTRALIA,-33.84705579999999,151.1716362
198,2020-04-27|Cockle Bay Sydney Harbour New South Wales AUSTRALIA,0.6300803010871231,-0.4657548917338656,0.0633809838629394,0.08388338532091576,0.3555483355129545,0.12641461888603248,0.09861136573829474,2020-04-27,Cockle Bay Sydney Harbour New South Wales AUSTRALIA,Cockle Bay,New South Wales,AUSTRALIA,-33.8661517,151.2005002
199,2020-04-27|Coffee Head New South Wales AUSTRALIA,0.6300803010871231,-0.4657548917338656,0.0633809838629394,0.08388338532091576,0.3555483355129545,0.12641461888603248,0.09861136573829474,2020-04-27,Coffee Head New South Wales AUSTRALIA,Coffee Head,New South Wales,AUSTRALIA,-33.8594282,151.2777455
200,2020-04-27|Coffin Bay South Australia AUSTRALIA,0.6363571440925044,-0.48631706765483684,0.05119748359924824,0.014886414066217032,0.3566303709009396,0.12718522144894173,0.10295032032042678,2020-04-27,Coffin Bay South Australia AUSTRALIA,Coffin Bay,South Australia,AUSTRALIA,-34.6235585,135.4654638
201,2020-04-27|Coff’s Harbor New South Wales AUSTRALIA,0.67617392320773,-0.4338119720539879,0.07856689645991881,0.12833908640551486,0.3731096279255792,0.13921079445076415,0.10348199191192052,2020-04-27,Coff’s Harbor New South Wales AUSTRALIA,Coff’s Harbor,New South Wales,AUSTRALIA,-30.298612,153.10939219999997
202,2020-04-27|Coledale Beach New South Wales AUSTRALIA,0.6227526108455902,-0.4683204269333722,0.05918301273086027,0.0762420788316424,0.35253705153155207,0.1242823727025602,0.09777618583060782,2020-04-27,Coledale Beach New South Wales AUSTRALIA,Coledale Beach,New South Wales,AUSTRALIA,-34.28763370000001,150.9490069
203,2020-04-27|Collaroy New South Wales AUSTRALIA,0.6333869935811742,-0.4658304970802901,0.06452851335310673,0.08602255745450654,0.357080617375575,0.12750656730532178,0.09903634426322871,2020-04-27,Collaroy New South Wales AUSTRALIA,Collaroy,New South Wales,AUSTRALIA,-33.73,151.3
204,2020-04-27|Colledges Crossing Brisbane River Queensland AUSTRALIA,0.9316332076562042,-0.6981712229324042,0.11600931244975707,0.16747950870977427,0.5808963310493035,0.337440547426542,0.16111165440978217,2020-04-27,Colledges Crossing Brisbane River Queensland AUSTRALIA,Colledge's Crossing,Queensland,AUSTRALIA,-27.5568063,152.80267419999998
205,2020-04-27|College’s Crossing 54 miles above mouth of the Brisbane River Queensland AUSTRALIA,0.692168359900246,-0.5003901976296329,0.07507501705451188,0.08731145968942955,0.3923638403219293,0.1539493831921724,0.11326568441507061,2020-04-27,College’s Crossing 54 miles above mouth of the Brisbane River Queensland AUSTRALIA,College’s Crossing,Queensland,AUSTRALIA,-26.895106800000004,152.318608
206,2020-04-27|Collendina Beach east of Ocean Grove Victoria AUSTRALIA,1.0789531911031265,-0.9838057786055494,0.1342587184519736,0.13913592916579454,0.6642045147715098,0.44116763744285675,0.19173932770014798,2020-04-27,Collendina Beach east of Ocean Grove Victoria AUSTRALIA,Collendina Beach east of Ocean Grove,Victoria,AUSTRALIA,-38.271434,144.55914099999998
207,2020-04-27|Collie River Western Australia AUSTRALIA,0.31147513748180466,-0.21246610508220565,-0.0005786594095041111,-0.051081944695786106,0.18159960233054792,0.03297841556661314,0.05242328964513542,2020-04-27,Collie River Western Australia AUSTRALIA,Collie River,Western Australia,AUSTRALIA,-33.3057308,115.788155
208,2020-04-27|Condon 88 km NE of Port Hedland Western Australia AUSTRALIA,2.6184920380735583,-2.534865569622381,0.2874188616091504,0.6073832840436724,1.8838748247656352,3.5489843553857523,0.5438278185989993,2020-04-27,Condon 88 km NE of Port Hedland Western Australia AUSTRALIA,Condon,Western Australia,AUSTRALIA,-20.3068645,118.61767090000001
209,2020-04-27|Cone Bay Western Australia AUSTRALIA,3.364552933488077,-3.1428938005504072,1.0018535422866701,1.6655588123570992,2.323594606376505,5.399091894781986,0.6707639857395189,2020-04-27,Cone Bay Western Australia AUSTRALIA,Cone Bay,Western Australia,AUSTRALIA,-16.4683333,123.53527779999999
210,2020-04-27|Conspicuous Beach near Walpole Western Australia AUSTRALIA,0.3351414965716771,-0.14240548567512862,0.04259251803238532,-0.026225798085688284,0.19274420818437152,0.03715032978862035,0.05564046023999408,2020-04-27,Conspicuous Beach near Walpole Western Australia AUSTRALIA,Conspicuous Beach,Western Australia,AUSTRALIA,-35.0169764,116.861579
211,2020-04-27|Coogee Bay near Sydney New South Wales AUSTRALIA,0.628891948025906,-0.46596636025206045,0.06266615245754152,0.08301704491567982,0.3550847439331667,0.12608517537408256,0.0984827885681564,2020-04-27,Coogee Bay near Sydney New South Wales AUSTRALIA,Coogee Bay,New South Wales,AUSTRALIA,-33.9197737,151.249673
212,2020-04-27|Coogee New South Wales AUSTRALIA,0.628891948025906,-0.46596636025206045,0.06266615245754152,0.08301704491567982,0.3550847439331667,0.12608517537408256,0.0984827885681564,2020-04-27,Coogee New South Wales AUSTRALIA,Coogee,New South Wales,AUSTRALIA,-33.919000000000004,151.2555
213,2020-04-27|Cook Island New South Wales AUSTRALIA,0.690831162752822,-0.46022738400741015,0.07699094192653456,0.05898836027890565,0.38817146948176595,0.15067708971963356,0.1120554511985151,2020-04-27,Cook Island New South Wales AUSTRALIA,Cook Island,New South Wales,AUSTRALIA,-28.195873100000004,153.57802900000002
214,2020-04-27|Cooks Hill Newcastle New South Wales AUSTRALIA,0.6505976384968132,-0.4649568472135418,0.069895203158927,0.0978721448530581,0.36517580456472454,0.1333533682394939,0.10128154522437932,2020-04-27,Cooks Hill Newcastle New South Wales AUSTRALIA,Cooks Hill,New South Wales,AUSTRALIA,-32.9338,151.7696
215,2020-04-27|Cooktown Queensland AUSTRALIA,0.4369250314442181,-0.526502536740622,0.009174758717799237,0.05808824182839314,0.3034664621768332,0.09209189366612335,0.08760322181390902,2020-04-27,Cooktown Queensland AUSTRALIA,Cooktown,Queensland,AUSTRALIA,-15.4758164,145.2470981
216,2020-04-27|Coolum Beach Queensland AUSTRALIA,0.6908162853816981,-0.4980860784991666,0.07715945025151849,0.08887952898497281,0.39087254104585717,0.1527813433436453,0.11283518339582935,2020-04-27,Coolum Beach Queensland AUSTRALIA,Coolum Beach,Queensland,AUSTRALIA,-26.527691700000002,153.0736329
217,2020-04-27|Coopers Point Queensland AUSTRALIA,1.4093382133976737,-1.2971567437122782,0.07815741803758715,0.1263010686242938,0.8244218620085544,0.6796714065576519,0.2379900919782257,2020-04-27,Coopers Point Queensland AUSTRALIA,Cooper's Point,Queensland,AUSTRALIA,-27.4137404,140.0047273
218,2020-04-27|Cooranbong New South Wales AUSTRALIA,0.6464578655852081,-0.4652022016691234,0.06921473531948193,0.09384286653256396,0.36287193277619023,0.1316760395967279,0.10064256615779044,2020-04-27,Cooranbong New South Wales AUSTRALIA,Cooranbong,New South Wales,AUSTRALIA,-33.074,151.451
219,2020-04-27|Coral Bay Western Australia AUSTRALIA,0.5554452281140688,-0.4886303226646965,0.08072913066478542,0.1475020655179981,0.32679061829671263,0.10679210820674773,0.09433632572112564,2020-04-27,Coral Bay Western Australia AUSTRALIA,Coral Bay,Western Australia,AUSTRALIA,-23.143670800000002,113.77153590000002
220,2020-04-27|Corio Bay Port Phillip South Australia AUSTRALIA,0.3046167198017321,-0.30196637179412433,0.07645135656712707,0.11425493120016483,0.21626844735910583,0.04677204132311833,0.08174178973460823,2020-04-27,Corio Bay Port Phillip South Australia AUSTRALIA,Corio Bay,South Australia,AUSTRALIA,-38.1166667,144.43333330000002
221,2020-04-27|Cottesloe Beach Perth Western Australia AUSTRALIA,0.2929060096518765,-0.1932428552000659,0.012039318514180913,-0.05724639488842929,0.1710384052121666,0.0292541360575213,0.04571193659172412,2020-04-27,Cottesloe Beach Perth Western Australia AUSTRALIA,Cottesloe Beach,Western Australia,AUSTRALIA,-32.0135412,115.76343659999999
222,2020-04-27|Cottesloe Beach Western Australia AUSTRALIA,0.2929060096518765,-0.1932428552000659,0.012039318514180913,-0.05724639488842929,0.1710384052121666,0.0292541360575213,0.04571193659172412,2020-04-27,Cottesloe Beach Western Australia AUSTRALIA,Cottesloe Beach,Western Australia,AUSTRALIA,-31.9938622,115.7510477
223,2020-04-27|Cottesloe Perth Western Australia AUSTRALIA,0.2929060096518765,-0.1932428552000659,0.012039318514180913,-0.05724639488842929,0.1710384052121666,0.0292541360575213,0.04571193659172412,2020-04-27,Cottesloe Perth Western Australia AUSTRALIA,Cottesloe,Western Australia,AUSTRALIA,-31.9896506,115.7630503
224,2020-04-27|Cowaramup Bay Western Australia AUSTRALIA,0.3142516220122206,-0.18118924170601008,0.02747628885000712,-0.02666651992853104,0.18572877952169917,0.034495179542619936,0.051511895222679425,2020-04-27,Cowaramup Bay Western Australia AUSTRALIA,Cowaramup Bay,Western Australia,AUSTRALIA,-33.8606025,114.9857991
225,2020-04-27|Cowell South Australia AUSTRALIA,0.8863341636701525,-0.614597057500296,0.05317097581359567,0.019656944031600607,0.49570587654438253,0.2457243160406346,0.1374840734945841,2020-04-27,Cowell South Australia AUSTRALIA,Cowell,South Australia,AUSTRALIA,-33.683333000000005,136.916667
226,2020-04-27|Cowes Victoria AUSTRALIA,0.5623091892519798,-0.49275546092224676,0.09432974863421713,0.12931820536534055,0.31476641404009215,0.09907789540765873,0.09086523693895021,2020-04-27,Cowes Victoria AUSTRALIA,Cowes,Victoria,AUSTRALIA,-38.451111,145.241944
227,2020-04-27|Crescent Head New South Wales AUSTRALIA,0.6748290725049174,-0.4325965488991488,0.07814385070089197,0.12260061516447016,0.37253066917621275,0.13877909947687686,0.10332141764598057,2020-04-27,Crescent Head New South Wales AUSTRALIA,Crescent Head,New South Wales,AUSTRALIA,-31.1861501,152.9132368
228,2020-04-27|Cronulla New South Wales AUSTRALIA,0.6249671730309879,-0.46709272963858944,0.06045886200096287,0.0791652132392619,0.35344946636176955,0.12492652527141968,0.09802924417328805,2020-04-27,Cronulla New South Wales AUSTRALIA,Cronulla,New South Wales,AUSTRALIA,-34.05744,151.15219
229,2020-04-27|Cronulla near Sydney New South Wales AUSTRALIA,0.6249671730309879,-0.46709272963858944,0.06045886200096287,0.0791652132392619,0.35344946636176955,0.12492652527141968,0.09802924417328805,2020-04-27,Cronulla near Sydney New South Wales AUSTRALIA,Cronulla,New South Wales,AUSTRALIA,-34.05744,151.15219
230,2020-04-27|Crookhaven New South Wales AUSTRALIA,0.6133693238314857,-0.4706344407146365,0.056242349820312024,0.06746337133577508,0.34824205108223916,0.12127252614196488,0.09658496703459717,2020-04-27,Crookhaven New South Wales AUSTRALIA,Crookhaven,New South Wales,AUSTRALIA,-34.9211517,150.7225905
231,2020-04-27|Crowdy Head New South Wales AUSTRALIA,0.6735873893497306,-0.45047706393283876,0.0756230411190609,0.11107609731937607,0.3734412760086396,0.13945838662696095,0.10357397454029617,2020-04-27,Crowdy Head New South Wales AUSTRALIA,Crowdy Head,New South Wales,AUSTRALIA,-31.844324100000005,152.72650990000002
232,2020-04-27|Cudgen Creek New South Wales AUSTRALIA,0.6889212660363938,-0.4605855703929796,0.07591892121626435,0.059507903840391785,0.38773241447878226,0.1503364252375462,0.11192870693643425,2020-04-27,Cudgen Creek New South Wales AUSTRALIA,Cudgen Creek,New South Wales,AUSTRALIA,-28.2765787,153.5730286
233,2020-04-27|Cull Island  Esperance Western Australia AUSTRALIA,0.42790214312399955,-0.2121670485665364,0.04076517727366477,-0.04928938258512645,0.22775279725288863,0.0518713366565154,0.06867005213106524,2020-04-27,Cull Island  Esperance Western Australia AUSTRALIA,Cull Island / Esperance,Western Australia,AUSTRALIA,-33.9221794,121.90321809999999
234,2020-04-27|Curl Curl New South Wales AUSTRALIA,0.6315376362736688,-0.465458366516061,0.06385605715113238,0.0845437523152989,0.3561202751447366,0.1268216503691629,0.098769993251284,2020-04-27,Curl Curl New South Wales AUSTRALIA,Curl Curl,New South Wales,AUSTRALIA,-33.77213,151.28992
235,2020-04-27|Currumbin Queensland AUSTRALIA,0.6927556572659692,-0.4608689956917844,0.07740891230316549,0.05830139346913468,0.3887426245078311,0.15112082810923655,0.11222032945253896,2020-04-27,Currumbin Queensland AUSTRALIA,Currumbin,Queensland,AUSTRALIA,-28.136,153.483
236,2020-04-27|Currumbin Rock Queensland AUSTRALIA,0.6927556572659692,-0.4608689956917844,0.07740891230316549,0.05830139346913468,0.3887426245078311,0.15112082810923655,0.11222032945253896,2020-04-27,Currumbin Rock Queensland AUSTRALIA,Currumbin Rock,Queensland,AUSTRALIA,-28.133333299999997,153.5
237,2020-04-27|Dampiers Creek Broome Western Australia AUSTRALIA,3.6191407092719565,-3.1999595436371067,0.7891725955740053,1.3973202923327088,2.4957684219295144,6.22886001590054,0.7204662851179864,2020-04-27,Dampiers Creek Broome Western Australia AUSTRALIA,Dampier's Creek,Western Australia,AUSTRALIA,-17.9420122,122.250175
238,2020-04-27|Dangerous Reef South Australia AUSTRALIA,0.6642698734911684,-0.4174168103864211,0.06805679992593595,0.008056331443987375,0.3494601226267462,0.12212237730630049,0.10088044793479578,2020-04-27,Dangerous Reef South Australia AUSTRALIA,Dangerous Reef,South Australia,AUSTRALIA,-34.8166667,136.22916669999998
239,2020-04-27|Dangerous Reef South Neptune Island South Australia AUSTRALIA,0.6642698734911684,-0.4174168103864211,0.06805679992593595,0.008056331443987375,0.3494601226267462,0.12212237730630049,0.10088044793479578,2020-04-27,Dangerous Reef South Neptune Island South Australia AUSTRALIA,Dangerous Reef,South Australia,AUSTRALIA,-34.8166667,136.22916669999998
240,2020-04-27|Darling Harbor Sydney New South Wales AUSTRALIA,0.6300803010871231,-0.4657548917338656,0.0633809838629394,0.08388338532091576,0.3555483355129545,0.12641461888603248,0.09861136573829474,2020-04-27,Darling Harbor Sydney New South Wales AUSTRALIA,Darling Harbor,New South Wales,AUSTRALIA,-33.87488,151.2009
241,2020-04-27|Dee Why north of Queenscliff New South Wales AUSTRALIA,0.6315376362736688,-0.465458366516061,0.06385605715113238,0.0845437523152989,0.3561202751447366,0.1268216503691629,0.098769993251284,2020-04-27,Dee Why north of Queenscliff New South Wales AUSTRALIA,Dee Why,New South Wales,AUSTRALIA,-33.7544,151.2854
242,2020-04-27|Denmark Western Australia AUSTRALIA,0.35208321396909464,-0.15596714630426295,0.05547283505904511,-0.003170039445717758,0.20222423366356712,0.040894640680816996,0.060972900598109975,2020-04-27,Denmark Western Australia AUSTRALIA,Denmark,Western Australia,AUSTRALIA,-34.9617565,117.35065
243,2020-04-27|Dent Island Whitsundays Queensland AUSTRALIA,0.7631092945974777,-0.8441794962798744,-0.025253869342951304,0.02163731651101058,0.5195483981950085,0.2699305380669992,0.15664973611300037,2020-04-27,Dent Island Whitsundays Queensland AUSTRALIA,Dent Island,Queensland,AUSTRALIA,-20.3496288,148.93201430000002
244,2020-04-27|Depth of 40 m on the wreck of the St Paul off Brisbane Queensland AUSTRALIA,2.4445607678126082,-2.3224153608525335,0.6219227763964459,1.101135728202706,1.7675390380016476,3.1241942508597895,0.5329330719415636,2020-04-27,Depth of 40 m on the wreck of the St Paul off Brisbane Queensland AUSTRALIA,Depth of 40 m on the wreck of the St. Paul off Brisbane,Queensland,AUSTRALIA,44.953702899999996,-93.0899578
245,2020-04-27|Derwent Island Queensland AUSTRALIA,1.1115020682523322,-1.1623711638352685,-0.0795652585599541,-0.11819107172269759,0.7969422058584766,0.6351168794785745,0.24028711603915817,2020-04-27,Derwent Island Queensland AUSTRALIA,Derwent Island,Queensland,AUSTRALIA,-20.9866702,149.7855122
246,2020-04-27|Derwent River Tasmania AUSTRALIA,0.4092456271493073,-0.35503308291156194,0.05589230563723117,0.0381742832599249,0.24487018672985097,0.05996140834911209,0.07743475211370672,2020-04-27,Derwent River Tasmania AUSTRALIA,Derwent River,Tasmania,AUSTRALIA,-42.133391100000004,146.22308940000002
247,2020-04-27|Derwent River empties into the sea at Hobart Tasmania AUSTRALIA,0.4092456271493073,-0.35503308291156194,0.05589230563723117,0.0381742832599249,0.24487018672985097,0.05996140834911209,0.07743475211370672,2020-04-27,Derwent River empties into the sea at Hobart Tasmania AUSTRALIA,Derwent River (empties into the sea at Hobart),Tasmania,AUSTRALIA,-42.133391100000004,146.22308940000002
248,2020-04-27|Dicky Beach Queensland AUSTRALIA,0.6976935365735604,-0.5066271360926207,0.07345400934940936,0.08720390014935109,0.3966312595824591,0.15731635607796804,0.11449758224447655,2020-04-27,Dicky Beach Queensland AUSTRALIA,Dicky Beach,Queensland,AUSTRALIA,-26.783,153.13299999999998
249,2020-04-27|Dingo Reef 80 nm off Townsville Queensland AUSTRALIA,0.5663240063206135,-0.5174931117167042,0.04961036560445848,0.06571975738804865,0.3310261469147979,0.10957830994125739,0.09980813864667705,2020-04-27,Dingo Reef 80 nm off Townsville Queensland AUSTRALIA,Dingo Reef,Queensland,AUSTRALIA,-19.150384600000002,148.3894903
250,2020-04-27|Direction Island Cocos Islands Western Australia AUSTRALIA,0.4759935583815873,-0.3314355918346771,0.025764090389002254,-0.02115412883500564,0.27727465526621203,0.07688123445299673,0.07690215284222529,2020-04-27,Direction Island Cocos Islands Western Australia AUSTRALIA,Direction Island,Western Australia,AUSTRALIA,-12.188700599999999,96.8293902
251,2020-04-27|Dobroyd Head Watson Bay Sydney New South Wales AUSTRALIA,0.6315376362736688,-0.465458366516061,0.06385605715113238,0.0845437523152989,0.3561202751447366,0.1268216503691629,0.098769993251284,2020-04-27,Dobroyd Head Watson Bay Sydney New South Wales AUSTRALIA,Dobroyd Head,New South Wales,AUSTRALIA,-33.8115783,151.2731683
252,2020-04-27|Dolphin Bay Innes National Park South Australia AUSTRALIA,0.5085033001506248,-0.3607984631089912,0.043317055978477376,0.013340278347231695,0.26635014634640836,0.07094240045875315,0.07688866434589754,2020-04-27,Dolphin Bay Innes National Park South Australia AUSTRALIA,Dolphin Bay,South Australia,AUSTRALIA,-35.2367081,136.897156
253,2020-04-27|Double Island Beach Queensland AUSTRALIA,0.6928518168292433,-0.5010336023344834,0.07935649946340025,0.09020200540836551,0.3903324508120244,0.15235942215692144,0.11267927277488432,2020-04-27,Double Island Beach Queensland AUSTRALIA,Double Island Beach,Queensland,AUSTRALIA,-25.9090307,153.0924523
254,2020-04-27|Dover Heights Sydney New South Wales AUSTRALIA,0.6300803010871231,-0.4657548917338656,0.0633809838629394,0.08388338532091576,0.3555483355129545,0.12641461888603248,0.09861136573829474,2020-04-27,Dover Heights Sydney New South Wales AUSTRALIA,Dover Heights,New South Wales,AUSTRALIA,-33.87185,151.27837
255,2020-04-27|Dugong Bay Westerm Australia AUSTRALIA,4.281521176921744,-3.709217158778918,0.79544945250669,1.2756132097264055,2.98326322587088,8.899859474833532,0.861193913260032,2020-04-27,Dugong Bay Westerm Australia AUSTRALIA,Dugong Bay,Western Australia,AUSTRALIA,-16.395,123.87222220000001
256,2020-04-27|Duranbah Greenmount Beach Queensland AUSTRALIA,0.690831162752822,-0.46022738400741015,0.07699094192653456,0.05898836027890565,0.38817146948176595,0.15067708971963356,0.1120554511985151,2020-04-27,Duranbah Greenmount Beach Queensland AUSTRALIA,Duranbah,Queensland,AUSTRALIA,-28.1675,153.55194440000002
257,2020-04-27|Duranbah Queensland AUSTRALIA,0.6878310517561083,-0.4603297529434576,0.07525801565621372,0.05944089356525841,0.3874835265147424,0.15014348332030106,0.11185685916991601,2020-04-27,Duranbah Queensland AUSTRALIA,Duranbah,Queensland,AUSTRALIA,-28.316667,153.533333
258,2020-04-27|Eaglehawk Neck Tasmania AUSTRALIA,0.3746242448034191,-0.33657087552836507,0.0641991642760746,0.07964656659390038,0.21639507439447409,0.046826828222189976,0.062467877226479354,2020-04-27,Eaglehawk Neck Tasmania AUSTRALIA,Eaglehawk Neck,Tasmania,AUSTRALIA,-43.019722200000004,147.925
259,2020-04-27|East Ballina New South Wales AUSTRALIA,0.6914855438811363,-0.45720310044815415,0.07054919999627252,0.04953625613662832,0.39078087157901636,0.1527096895920557,0.11280872070015084,2020-04-27,East Ballina New South Wales AUSTRALIA,East Ballina,New South Wales,AUSTRALIA,-28.8537305,153.5865127
260,2020-04-27|East of Station Pier Port Melbourne Victoria AUSTRALIA,0.29738929625799,-0.3727052894406075,0.02073971460455954,0.05015050777263484,0.23581847954737,0.05561035529603337,0.07860615984912334,2020-04-27,East of Station Pier Port Melbourne Victoria AUSTRALIA,East of Station Pier,Victoria,AUSTRALIA,-37.8423661,144.93221259999999
261,2020-04-27|Egg Rock Middle Harbor Sydney New South Wales AUSTRALIA,0.6315376362736688,-0.465458366516061,0.06385605715113238,0.0845437523152989,0.3561202751447366,0.1268216503691629,0.098769993251284,2020-04-27,Egg Rock Middle Harbor Sydney New South Wales AUSTRALIA,Egg Rock,New South Wales,AUSTRALIA,-33.7859956,151.2260866
262,2020-04-27|Eight-mile reef off Port Kembla New South Wales AUSTRALIA,0.6207887982550655,-0.4691126101276114,0.05874123852535263,0.0743985239048407,0.35164377861340135,0.12365334703751081,0.09752843649911738,2020-04-27,Eight-mile reef off Port Kembla New South Wales AUSTRALIA,Eight-mile reef off Port Kembla,New South Wales,AUSTRALIA,-34.485392,150.8995794
263,2020-04-27|Elephant Rock Currumbin near Southport Queensland AUSTRALIA,0.6927556572659692,-0.4608689956917844,0.07740891230316549,0.05830139346913468,0.3887426245078311,0.15112082810923655,0.11222032945253896,2020-04-27,Elephant Rock Currumbin near Southport Queensland AUSTRALIA,Elephant Rock,Queensland,AUSTRALIA,-28.131834499999997,153.48836269999998
264,2020-04-27|Elliot Head near Bundaberg Queensland AUSTRALIA,0.9938651765468985,-0.6930472050306612,0.12902882117035358,0.11978001237115676,0.5834497979727661,0.3404136667544615,0.17591673308039324,2020-04-27,Elliot Head near Bundaberg Queensland AUSTRALIA,Elliot Head,Queensland,AUSTRALIA,-24.916667,152.48333300000002
265,2020-04-27|Elliots Cove Tasmania AUSTRALIA,0.3740119693342102,-0.38563346664990406,0.019250877734835588,0.05487141665024933,0.2625192924698664,0.06891637891887925,0.08301588939406675,2020-04-27,Elliots Cove Tasmania AUSTRALIA,Elliot's Cove,Tasmania,AUSTRALIA,-42.98,145.56
266,2020-04-27|Ellis Beach Queensland AUSTRALIA,0.4585161247650472,-0.5415689819658045,0.014374530355738047,0.09006070867125267,0.33327615997700083,0.11107299880901544,0.10048654311037937,2020-04-27,Ellis Beach Queensland AUSTRALIA,Ellis Beach,Queensland,AUSTRALIA,-16.722874800000003,145.67572130000002
267,2020-04-27|Elliston Eyre Peninsula South Australia AUSTRALIA,0.7259712381784698,-0.472808051385378,0.06738767596196901,0.03057716872440521,0.38945061697529704,0.1516717830624395,0.11242470927337679,2020-04-27,Elliston Eyre Peninsula South Australia AUSTRALIA,Elliston,South Australia,AUSTRALIA,-34.3333333,135.75
268,2020-04-27|Elwood Beach Victoria AUSTRALIA,0.29738929625799,-0.3727052894406075,0.02073971460455954,0.05015050777263484,0.23581847954737,0.05561035529603337,0.07860615984912334,2020-04-27,Elwood Beach Victoria AUSTRALIA,Elwood Beach,Victoria,AUSTRALIA,-37.890226500000004,144.9845562
269,2020-04-27|Elwood Victoria AUSTRALIA,0.29738929625799,-0.3727052894406075,0.02073971460455954,0.05015050777263484,0.23581847954737,0.05561035529603337,0.07860615984912334,2020-04-27,Elwood Victoria AUSTRALIA,Elwood,Victoria,AUSTRALIA,-37.882248600000004,144.9825759
270,2020-04-27|Emerald Beach New South Wales AUSTRALIA,0.680164359996449,-0.44022160368309715,0.07854547796941555,0.1317173777420863,0.37599045037207107,0.14136881877099283,0.10428098830010005,2020-04-27,Emerald Beach New South Wales AUSTRALIA,Emerald Beach,New South Wales,AUSTRALIA,-30.1574794,153.1501948
271,2020-04-27|Emerald Hill Victoria AUSTRALIA,0.29738929625799,-0.3727052894406075,0.02073971460455954,0.05015050777263484,0.23581847954737,0.05561035529603337,0.07860615984912334,2020-04-27,Emerald Hill Victoria AUSTRALIA,Emerald Hill,Victoria,AUSTRALIA,-37.835,144.96
272,2020-04-27|Emu Channel Western Australia AUSTRALIA,0.506151500306388,-0.3339302849151236,0.07641693833393864,0.01840658428138288,0.2890558783312111,0.08355330079782791,0.08344324458268422,2020-04-27,Emu Channel Western Australia AUSTRALIA,Emu Channel,Western Australia,AUSTRALIA,-27.6728168,121.6283098
273,2020-04-27|Emu Point Western Australia AUSTRALIA,0.37207442178605754,-0.16857797650076595,0.04733025507174418,-0.03678774669115499,0.21083811804652736,0.0444527120214014,0.06357008446045372,2020-04-27,Emu Point Western Australia AUSTRALIA,Emu Point,Western Australia,AUSTRALIA,-34.9977653,117.9383683
274,2020-04-27|Encounter Bay South Australia AUSTRALIA,0.5414295365867736,-0.4157623149630713,0.0188396149018592,0.008146537738904471,0.28463630562800024,0.08101782648155635,0.07894390729233801,2020-04-27,Encounter Bay South Australia AUSTRALIA,Encounter Bay,South Australia,AUSTRALIA,-35.5753024,138.5962997
275,2020-04-27|Esperance Westerm Australia AUSTRALIA,0.42790214312399955,-0.2121670485665364,0.04076517727366477,-0.04928938258512645,0.22775279725288863,0.0518713366565154,0.06867005213106524,2020-04-27,Esperance Westerm Australia AUSTRALIA,Esperance,Western Australia,AUSTRALIA,-33.86131029999999,121.89142379999998
276,2020-04-27|Esperance Western Australia AUSTRALIA,0.42790214312399955,-0.2121670485665364,0.04076517727366477,-0.04928938258512645,0.22775279725288863,0.0518713366565154,0.06867005213106524,2020-04-27,Esperance Western Australia AUSTRALIA,Esperance,Western Australia,AUSTRALIA,-33.86131029999999,121.89142379999998
277,2020-04-27|Eva Rock Queensland AUSTRALIA,0.525467281488351,-0.5867859886382872,0.010103129085762193,0.0832353285678581,0.3799442258380247,0.14435761474765588,0.1145574943969803,2020-04-27,Eva Rock Queensland AUSTRALIA,Eva Rock,Queensland,AUSTRALIA,-18.235612,146.3256112
278,2020-04-27|Evans Head New South Wales AUSTRALIA,0.6954030844518775,-0.4521800721581813,0.08263238253198221,0.13252182554754577,0.3803393591326179,0.14465802810541048,0.10548715857152052,2020-04-27,Evans Head New South Wales AUSTRALIA,Evans Head,New South Wales,AUSTRALIA,-29.108617100000004,153.4217078
279,2020-04-27|Exmouth Western Australia AUSTRALIA,0.8055290638977608,-0.6831239434371112,0.13250133901549832,0.1633003087776642,0.48961348271470473,0.23972136245602246,0.14762401949671225,2020-04-27,Exmouth Western Australia AUSTRALIA,Exmouth,Western Australia,AUSTRALIA,-21.9313388,114.1236812
280,2020-04-27|Fairhaven Beach Lorne Victoria AUSTRALIA,0.9975709756930309,-0.8838853516199113,0.1501940662838248,0.16737661820694766,0.5994589592039946,0.3593510437699365,0.1730488957322796,2020-04-27,Fairhaven Beach Lorne Victoria AUSTRALIA,Fairhaven Beach,Victoria,AUSTRALIA,-38.468452500000005,144.0776499
281,2020-04-27|Fairy Bower New South Wales AUSTRALIA,0.6315376362736688,-0.465458366516061,0.06385605715113238,0.0845437523152989,0.3561202751447366,0.1268216503691629,0.098769993251284,2020-04-27,Fairy Bower New South Wales AUSTRALIA,Fairy Bower,New South Wales,AUSTRALIA,-33.8007906,151.2936784
282,2020-04-27|Fairy Bower near North Steyne New South Wales AUSTRALIA,0.6315376362736688,-0.465458366516061,0.06385605715113238,0.0845437523152989,0.3561202751447366,0.1268216503691629,0.098769993251284,2020-04-27,Fairy Bower near North Steyne New South Wales AUSTRALIA,Fairy Bower,New South Wales,AUSTRALIA,-33.8007906,151.2936784
283,2020-04-27|Falcon Bay Beach Mandurah Western Australia AUSTRALIA,0.2901841474933051,-0.19766576653077025,0.009898514216444375,-0.052897823092601576,0.17769549608883414,0.03157568933025687,0.04749111896694616,2020-04-27,Falcon Bay Beach Mandurah Western Australia AUSTRALIA,Falcon Bay Beach,Western Australia,AUSTRALIA,-32.5785751,115.65358130000001
284,2020-04-27|Falcon Beach Mandurah Western Australia AUSTRALIA,0.2901841474933051,-0.19766576653077025,0.009898514216444375,-0.052897823092601576,0.17769549608883414,0.03157568933025687,0.04749111896694616,2020-04-27,Falcon Beach Mandurah Western Australia AUSTRALIA,Falcon Beach,Western Australia,AUSTRALIA,-32.5785751,115.65358130000001
285,2020-04-27|Fantome Island Queensland AUSTRALIA,0.596721327213816,-0.580283392394429,0.06502978806836203,0.09264797327935646,0.3490512816910113,0.12183679725013773,0.10076242572264464,2020-04-27,Fantome Island Queensland AUSTRALIA,Fantome Island,Queensland,AUSTRALIA,-18.6932861,146.5196111
286,2020-04-27|Fidos Reef 300 m east of Cook Island Cook Island is 2 miles from Tweed Heads Gold Coast Queensland AUSTRALIA,0.690831162752822,-0.46022738400741015,0.07699094192653456,0.05898836027890565,0.38817146948176595,0.15067708971963356,0.1120554511985151,2020-04-27,Fidos Reef 300 m east of Cook Island Cook Island is 2 miles from Tweed Heads Gold Coast Queensland AUSTRALIA,Fido's Reef,Queensland,AUSTRALIA,-28.178665600000002,153.5370011
287,2020-04-27|Fig Tree Bridge Lane Cove River near Sydney New South Wales AUSTRALIA,0.6315376362736688,-0.465458366516061,0.06385605715113238,0.0845437523152989,0.3561202751447366,0.1268216503691629,0.098769993251284,2020-04-27,Fig Tree Bridge Lane Cove River near Sydney New South Wales AUSTRALIA,Fig Tree Bridge,New South Wales,AUSTRALIA,-33.8298,151.1461246
288,2020-04-27|Figtree Ledge Hervey Bay Queensland AUSTRALIA,1.07253821704168,-0.7790524341591187,0.12694147186875418,0.10110392574213911,0.645971643735667,0.4172793645105594,0.19476777886184904,2020-04-27,Figtree Ledge Hervey Bay Queensland AUSTRALIA,Figtree Ledge,Queensland,AUSTRALIA,-25.288153899999998,152.7676633
289,2020-04-27|Fingal Bay New South Wales AUSTRALIA,0.6534015609998813,-0.46193502418479626,0.07053429313896194,0.10059480548896918,0.36614708862445683,0.13406369050816583,0.10155093095364129,2020-04-27,Fingal Bay New South Wales AUSTRALIA,Fingal Bay,New South Wales,AUSTRALIA,-32.750155,152.16318700000002
290,2020-04-27|Fingal Beach New South Wales AUSTRALIA,0.690831162752822,-0.46022738400741015,0.07699094192653456,0.05898836027890565,0.38817146948176595,0.15067708971963356,0.1120554511985151,2020-04-27,Fingal Beach New South Wales AUSTRALIA,Fingal Beach,New South Wales,AUSTRALIA,-28.2,153.5667
291,2020-04-27|Fingal Beach Queensland AUSTRALIA,0.690831162752822,-0.46022738400741015,0.07699094192653456,0.05898836027890565,0.38817146948176595,0.15067708971963356,0.1120554511985151,2020-04-27,Fingal Beach Queensland AUSTRALIA,Fingal Beach,Queensland,AUSTRALIA,-28.2,153.5667
292,2020-04-27|Fingal Beach near Tweed Heads Queensland AUSTRALIA,0.690831162752822,-0.46022738400741015,0.07699094192653456,0.05898836027890565,0.38817146948176595,0.15067708971963356,0.1120554511985151,2020-04-27,Fingal Beach near Tweed Heads Queensland AUSTRALIA,Fingal Beach,Queensland,AUSTRALIA,-28.2,153.5667
293,2020-04-27|First Beach Forster New South Wales AUSTRALIA,0.6702395944103199,-0.4535747980111477,0.07539361857245898,0.10841497409862984,0.3721188637544408,0.13847244876189607,0.10320720337184881,2020-04-27,First Beach Forster New South Wales AUSTRALIA,First Beach,New South Wales,AUSTRALIA,-32.1777906,152.5131044
294,2020-04-27|First Sun Beach Byron Bay New South Wales AUSTRALIA,0.6891744161791671,-0.4612831382095517,0.07364348954154419,0.0581802216689572,0.38907220049655633,0.15137717719923252,0.11231546984544342,2020-04-27,First Sun Beach Byron Bay New South Wales AUSTRALIA,First Sun Beach,New South Wales,AUSTRALIA,-28.6410983,153.611705
295,2020-04-27|Fishery Bay Eyre Peninsula South Australia AUSTRALIA,0.5505200310475825,-0.3855232601320014,0.07383446737737033,0.05889685065611665,0.30615989002460076,0.09373387825987561,0.09231068009709761,2020-04-27,Fishery Bay Eyre Peninsula South Australia AUSTRALIA,Fishery Bay,South Australia,AUSTRALIA,-34.9141667,135.6861111
296,2020-04-27|Fishery Bay South Australia AUSTRALIA,0.5505200310475825,-0.3855232601320014,0.07383446737737033,0.05889685065611665,0.30615989002460076,0.09373387825987561,0.09231068009709761,2020-04-27,Fishery Bay South Australia AUSTRALIA,Fishery Bay,South Australia,AUSTRALIA,-34.9141667,135.6861111
297,2020-04-27|Fitzroy Island Queensland AUSTRALIA,0.46841444402042504,-0.5457396451130202,0.013571167286626799,0.08216140591608943,0.3375557830017517,0.11394390663792568,0.10177689800285797,2020-04-27,Fitzroy Island Queensland AUSTRALIA,Fitzroy Island,Queensland,AUSTRALIA,-16.9336669,145.9943465
298,2020-04-27|Fitzroy River at Rockhampton Queensland AUSTRALIA,1.3260263832094166,-1.3591698793171099,-0.07111407821022722,-0.09273473438471072,0.9223591356746865,0.8507463751625547,0.2558163967744407,2020-04-27,Fitzroy River at Rockhampton Queensland AUSTRALIA,Fitzroy River at Rockhampton,Queensland,AUSTRALIA,-23.265825699999997,150.35923630000002
299,2020-04-27|Fitzroy River near Rockhampton Queensland AUSTRALIA,1.3260263832094166,-1.3591698793171099,-0.07111407821022722,-0.09273473438471072,0.9223591356746865,0.8507463751625547,0.2558163967744407,2020-04-27,Fitzroy River near Rockhampton Queensland AUSTRALIA,Fitzroy River near Rockhampton,Queensland,AUSTRALIA,-23.265825699999997,150.35923630000002
300,2020-04-27|Flat Rock Ballina New South Wales AUSTRALIA,0.6914299694364401,-0.4577136795769913,0.07068756788201773,0.04975741536092321,0.39048935312288596,0.15248193490232995,0.11272456657059053,2020-04-27,Flat Rock Ballina New South Wales AUSTRALIA,Flat Rock,New South Wales,AUSTRALIA,-28.842362599999998,153.60194730000003
301,2020-04-27|Flat Rock Beach Lennox Head New South Wales AUSTRALIA,0.6914299694364401,-0.4577136795769913,0.07068756788201773,0.04975741536092321,0.39048935312288596,0.15248193490232995,0.11272456657059053,2020-04-27,Flat Rock Beach Lennox Head New South Wales AUSTRALIA,Flat Rock Beach,New South Wales,AUSTRALIA,-28.842362599999998,153.60194730000003
302,2020-04-27|Flat Rock New South Wales AUSTRALIA,0.6007581148846729,-0.4727256658977824,0.08223711421745072,0.11216712036760092,0.33861312700811597,0.11465884978221447,0.09774919001463835,2020-04-27,Flat Rock New South Wales AUSTRALIA,Flat Rock,New South Wales,AUSTRALIA,-35.2341806,150.52992930000002
303,2020-04-27|Flat Rock Yamba New South Wales AUSTRALIA,0.6923368935754287,-0.447625864557631,0.0828609741683691,0.13419641809780594,0.3803239437374749,0.144646302180026,0.10548288311016517,2020-04-27,Flat Rock Yamba New South Wales AUSTRALIA,Flat Rock,New South Wales,AUSTRALIA,-29.4372663,153.3652792
304,2020-04-27|Flinders Cay Queensland AUSTRALIA,0.6170247836064365,-0.5984258543641728,0.06779846733740773,0.08242632939249366,0.35959802889649267,0.1293107423862428,0.10380700939172444,2020-04-27,Flinders Cay Queensland AUSTRALIA,Flinders Cay,Queensland,AUSTRALIA,-21.0184301,144.4342138
305,2020-04-27|Flinders Island Tasmania AUSTRALIA,0.6106455793179184,-0.6031269593196623,0.06505010094265291,0.10028553762868571,0.3963905902422955,0.15712550003263542,0.10593984143055483,2020-04-27,Flinders Island Tasmania AUSTRALIA,Flinders Island,Tasmania,AUSTRALIA,-39.9836386,148.052689
306,2020-04-27|Flinders Island Victoria AUSTRALIA,0.2994055280553088,-0.3733871048430006,0.021301225729281458,0.05084774263119079,0.23667693011786745,0.056015969250017915,0.07889231003928915,2020-04-27,Flinders Island Victoria AUSTRALIA,Flinders Island,Victoria,AUSTRALIA,-37.908132,145.101076
307,2020-04-27|Flinders Mornington Penisula Victoria AUSTRALIA,1.1257815645080107,-1.0701425396273097,0.10386179480607989,0.10638526143794097,0.7056581017200961,0.49795335652320954,0.20370594749196894,2020-04-27,Flinders Mornington Penisula Victoria AUSTRALIA,Flinders,Victoria,AUSTRALIA,-38.474000000000004,145.02200000000002
308,2020-04-27|Flinders Victoria AUSTRALIA,1.1257815645080107,-1.0701425396273097,0.10386179480607989,0.10638526143794097,0.7056581017200961,0.49795335652320954,0.20370594749196894,2020-04-27,Flinders Victoria AUSTRALIA,Flinders,Victoria,AUSTRALIA,-38.474000000000004,145.02200000000002
309,2020-04-27|Floreat Beach Western Australia AUSTRALIA,0.29276859938109767,-0.1941166800785846,0.012647414320159683,-0.05568845357258363,0.17071805398741904,0.02914465395725132,0.04562631912554993,2020-04-27,Floreat Beach Western Australia AUSTRALIA,Floreat Beach,Western Australia,AUSTRALIA,-31.928959399999997,115.7548856
310,2020-04-27|Fluted Cape Bruny Island Tasmania AUSTRALIA,0.34360927522579465,-0.37245279874369863,0.03968354101429247,0.08807692795254747,0.21825603034042712,0.04763569477996144,0.060533331428587245,2020-04-27,Fluted Cape Bruny Island Tasmania AUSTRALIA,Fluted Cape,Tasmania,AUSTRALIA,-43.3582342,147.3630217
