,date,beach_address,beach_name,country_state,country,latitude,longitude,timestamp,datetime,datum,LAT,HAT,date_beach_address
0,2020-04-27,Windang Beach New South Wales AUSTRALIA,Windang Beach,New South Wales,AUSTRALIA,-34.53432479999999,150.8745658,1587913200,2020-04-26T15:00:00+00:00,MSL,-0.8554039764404296,1.0306138610839843,2020-04-27|Windang Beach New South Wales AUSTRALIA
1,2020-04-27,North West Island Queensland AUSTRALIA,North West Island,Queensland,AUSTRALIA,-23.2950882,151.7078724,1587913200,2020-04-26T15:00:00+00:00,MSL,-1.6995758056640624,2.016080017089844,2020-04-27|North West Island Queensland AUSTRALIA
2,2020-04-27,Cull Island  Esperance Western Australia AUSTRALIA,Cull Island / Esperance,Western Australia,AUSTRALIA,-33.9221794,121.90321809999999,1587913200,2020-04-26T15:00:00+00:00,MSL,-0.5073202514648437,0.6431026458740234,2020-04-27|Cull Island  Esperance Western Australia AUSTRALIA
3,2020-04-27,Esperance Western Australia AUSTRALIA,Esperance,Western Australia,AUSTRALIA,-33.86131029999999,121.89142379999998,1587913200,2020-04-26T15:00:00+00:00,MSL,-0.5073202514648437,0.6431026458740234,2020-04-27|Esperance Western Australia AUSTRALIA
4,2020-04-27,Shellharbour New South Wales AUSTRALIA,Shellharbour,New South Wales,AUSTRALIA,-34.583333,150.866667,1587913200,2020-04-26T15:00:00+00:00,MSL,-0.854715576171875,1.0285357666015624,2020-04-27|Shellharbour New South Wales AUSTRALIA
5,2020-04-27,Exmouth Western Australia AUSTRALIA,Exmouth,Western Australia,AUSTRALIA,-21.9313388,114.1236812,1587913200,2020-04-26T15:00:00+00:00,MSL,-1.1290065002441407,1.0752294921875,2020-04-27|Exmouth Western Australia AUSTRALIA
6,2020-04-27,Bargara Queensland AUSTRALIA,Bargara,Queensland,AUSTRALIA,-24.8312314,152.4592208,1587913200,2020-04-26T15:00:00+00:00,MSL,-1.4850363159179687,1.7590695190429688,2020-04-27|Bargara Queensland AUSTRALIA
7,2020-04-27,Elliot Head near Bundaberg Queensland AUSTRALIA,Elliot Head,Queensland,AUSTRALIA,-24.916667,152.48333300000002,1587913200,2020-04-26T15:00:00+00:00,MSL,-1.5625369262695312,1.8299913024902343,2020-04-27|Elliot Head near Bundaberg Queensland AUSTRALIA
8,2020-04-27,Off Airlie Beach Whitsundays Queensland AUSTRALIA,Off Airlie Beach,Queensland,AUSTRALIA,-20.2675,148.71694399999998,1587913200,2020-04-26T15:00:00+00:00,MSL,-1.6869923400878906,2.078521423339844,2020-04-27|Off Airlie Beach Whitsundays Queensland AUSTRALIA
9,2020-04-27,Woorim Beach Bribie Island Queensland AUSTRALIA,Woorim Beach,Queensland,AUSTRALIA,-27.060907899999997,153.2006374,1587913200,2020-04-26T15:00:00+00:00,MSL,-1.0650754547119141,1.34294189453125,2020-04-27|Woorim Beach Bribie Island Queensland AUSTRALIA
10,2020-04-27,Lighthouse Beach New South Wales AUSTRALIA,Lighthouse Beach,New South Wales,AUSTRALIA,-31.4789172,152.9298045,1587913200,2020-04-26T15:00:00+00:00,MSL,-0.8706361389160157,1.1227922058105468,2020-04-27|Lighthouse Beach New South Wales AUSTRALIA
11,2020-04-27,Burns Beach Perth Western Australia AUSTRALIA,Burns Beach,Western Australia,AUSTRALIA,-31.724687199999998,115.7248959,1587913200,2020-04-26T15:00:00+00:00,MSL,-0.4383910369873047,0.4657600784301758,2020-04-27|Burns Beach Perth Western Australia AUSTRALIA
12,2020-04-27,Magra Islet Queensland AUSTRALIA,Magra Islet,Queensland,AUSTRALIA,-11.8573472,143.2815326,1587913200,2020-04-26T15:00:00+00:00,MSL,-1.8282405090332032,2.0274925231933594,2020-04-27|Magra Islet Queensland AUSTRALIA
13,2020-04-27,Pelican Waters Caloundra Queensland AUSTRALIA,Pelican Waters,Queensland,AUSTRALIA,-26.799,153.13299999999998,1587913200,2020-04-26T15:00:00+00:00,MSL,-0.9471244049072266,1.2240269470214844,2020-04-27|Pelican Waters Caloundra Queensland AUSTRALIA
14,2020-04-27,Maatsuyker Island Tasmania AUSTRALIA,Maatsuyker Island,Tasmania,AUSTRALIA,-43.6522707,146.27698130000002,1587913200,2020-04-26T15:00:00+00:00,MSL,-0.6001605987548828,0.4708928680419922,2020-04-27|Maatsuyker Island Tasmania AUSTRALIA
15,2020-04-27,Lennox Head New South Wales AUSTRALIA,Lennox Head,New South Wales,AUSTRALIA,-28.8,153.583333,1587913200,2020-04-26T15:00:00+00:00,MSL,-0.8868402099609375,1.1673131561279297,2020-04-27|Lennox Head New South Wales AUSTRALIA
16,2020-04-27,Yandaran Beach Queensland AUSTRALIA,Yandaran Beach,Queensland,AUSTRALIA,-24.608613199999997,152.13039619999998,1587913200,2020-04-26T15:00:00+00:00,MSL,-1.4179087829589845,1.706182403564453,2020-04-27|Yandaran Beach Queensland AUSTRALIA
17,2020-04-27,Tomaree New South Wales AUSTRALIA,Tomaree,New South Wales,AUSTRALIA,-31.8894897,152.4444453,1587913200,2020-04-26T15:00:00+00:00,MSL,-0.8732811737060547,1.1130268096923828,2020-04-27|Tomaree New South Wales AUSTRALIA
18,2020-04-27,Line Reef Queensland AUSTRALIA,Line Reef,Queensland,AUSTRALIA,-19.674144000000002,149.1746224,1587913200,2020-04-26T15:00:00+00:00,MSL,-1.4528083801269531,1.7727986145019532,2020-04-27|Line Reef Queensland AUSTRALIA
19,2020-04-27,Belongil Bay New South Wales AUSTRALIA,Belongil Bay,New South Wales,AUSTRALIA,-28.633732799999997,153.6003455,1587913200,2020-04-26T15:00:00+00:00,MSL,-0.8891409301757812,1.1658721160888672,2020-04-27|Belongil Bay New South Wales AUSTRALIA
20,2020-04-27,Urunga area New South Wales AUSTRALIA,Urunga area,New South Wales,AUSTRALIA,-30.5,153.01666699999998,1587913200,2020-04-26T15:00:00+00:00,MSL,-0.8764799499511718,1.1311502838134766,2020-04-27|Urunga area New South Wales AUSTRALIA
21,2020-04-27,North Cottesloe Western Australia AUSTRALIA,North Cottesloe,Western Australia,AUSTRALIA,-31.9819839,115.76097040000002,1587913200,2020-04-26T15:00:00+00:00,MSL,-0.435899543762207,0.46491676330566406,2020-04-27|North Cottesloe Western Australia AUSTRALIA
22,2020-04-27,Catseye Beach Hamilton Island Whitsundays Queensland AUSTRALIA,Catseye Beach,Queensland,AUSTRALIA,-20.3464395,148.9574515,1587913200,2020-04-26T15:00:00+00:00,MSL,-2.0532640075683593,2.549216613769531,2020-04-27|Catseye Beach Hamilton Island Whitsundays Queensland AUSTRALIA
23,2020-04-27,Nambucca New South Wales AUSTRALIA,Nambucca,New South Wales,AUSTRALIA,-30.666463,152.73238840000002,1587913200,2020-04-26T15:00:00+00:00,MSL,-0.8763770294189454,1.129675064086914,2020-04-27|Nambucca New South Wales AUSTRALIA
24,2020-04-27,7 Mile Beach Gerroa New South Wales AUSTRALIA,7 Mile Beach,New South Wales,AUSTRALIA,-34.7699,150.813133,1587913200,2020-04-26T15:00:00+00:00,MSL,-0.8547678375244141,1.0267119598388672,2020-04-27|7 Mile Beach Gerroa New South Wales AUSTRALIA
25,2020-04-27,Pyramids Beach Mandurah Western Australia AUSTRALIA,Pyramids Beach,Western Australia,AUSTRALIA,-32.603604100000005,115.6304031,1587913200,2020-04-26T15:00:00+00:00,MSL,-0.43359607696533203,0.4594403076171875,2020-04-27|Pyramids Beach Mandurah Western Australia AUSTRALIA
26,2020-04-27,Shelly Beach Ballina New South Wales AUSTRALIA,Shelly Beach,New South Wales,AUSTRALIA,-28.863228499999998,153.59435119999998,1587913200,2020-04-26T15:00:00+00:00,MSL,-0.8866371154785156,1.1665674591064452,2020-04-27|Shelly Beach Ballina New South Wales AUSTRALIA
27,2020-04-27,Cid Harbor Whitsundays Queensland AUSTRALIA,Cid Harbor,Queensland,AUSTRALIA,-20.25,148.93333330000002,1587913200,2020-04-26T15:00:00+00:00,MSL,-1.7719540405273437,2.2005413818359374,2020-04-27|Cid Harbor Whitsundays Queensland AUSTRALIA
28,2020-04-27,Guillotines surf break Shire of Augusta Margaret River Western Australia AUSTRALIA,Guillotines surf break,Western Australia,AUSTRALIA,-34.1622739,115.18891599999999,1587913200,2020-04-26T15:00:00+00:00,MSL,-0.5179893112182617,0.5272737121582032,2020-04-27|Guillotines surf break Shire of Augusta Margaret River Western Australia AUSTRALIA
29,2020-04-27,Samurai Beach New South Wales AUSTRALIA,Samurai Beach,New South Wales,AUSTRALIA,-32.7673021,152.1244595,1587913200,2020-04-26T15:00:00+00:00,MSL,-0.8724609375,1.081038818359375,2020-04-27|Samurai Beach New South Wales AUSTRALIA
30,2020-04-27,Two Rocks near Three Mile Reef Western Australia AUSTRALIA,Two Rocks near Three Mile Reef,Western Australia,AUSTRALIA,-31.775555600000004,115.675,1587913200,2020-04-26T15:00:00+00:00,MSL,-0.4383910369873047,0.4657600784301758,2020-04-27|Two Rocks near Three Mile Reef Western Australia AUSTRALIA
31,2020-04-27,Swain Reef Queensland AUSTRALIA,Swain Reef,Queensland,AUSTRALIA,-21.9813586,152.473207,1587913200,2020-04-26T15:00:00+00:00,MSL,-1.1063570404052734,1.4245571899414062,2020-04-27|Swain Reef Queensland AUSTRALIA
32,2020-04-27,Arrawarra Headland New South Wales AUSTRALIA,Arrawarra Headland,New South Wales,AUSTRALIA,-30.068610999999997,153.195278,1587913200,2020-04-26T15:00:00+00:00,MSL,-0.8833928680419922,1.141236572265625,2020-04-27|Arrawarra Headland New South Wales AUSTRALIA
33,2020-04-27,Flat Rock Ballina New South Wales AUSTRALIA,Flat Rock,New South Wales,AUSTRALIA,-28.842362599999998,153.60194730000003,1587913200,2020-04-26T15:00:00+00:00,MSL,-0.8868402099609375,1.1673131561279297,2020-04-27|Flat Rock Ballina New South Wales AUSTRALIA
34,2020-04-27,Cairns Aquarium Queensland AUSTRALIA,Cairns Aquarium,Queensland,AUSTRALIA,-16.9184171,145.7738313,1587913200,2020-04-26T15:00:00+00:00,MSL,-1.4884945678710937,1.5454592895507813,2020-04-27|Cairns Aquarium Queensland AUSTRALIA
35,2020-04-27,Dugong Bay Westerm Australia AUSTRALIA,Dugong Bay,Western Australia,AUSTRALIA,-16.395,123.87222220000001,1587913200,2020-04-26T15:00:00+00:00,MSL,-5.530013427734375,5.6035003662109375,2020-04-27|Dugong Bay Westerm Australia AUSTRALIA
36,2020-04-27,Sharpes Beach Ballina New South Wales AUSTRALIA,Sharpes Beach,New South Wales,AUSTRALIA,-28.8338657,153.60514990000001,1587913200,2020-04-26T15:00:00+00:00,MSL,-0.8868402099609375,1.1673131561279297,2020-04-27|Sharpes Beach Ballina New South Wales AUSTRALIA
37,2020-04-27,Gearys Beach Western Australia AUSTRALIA,Gearys Beach,Western Australia,AUSTRALIA,-27.6728168,121.6283098,1587913200,2020-04-26T15:00:00+00:00,MSL,-0.5313834381103516,0.7213011169433594,2020-04-27|Gearys Beach Western Australia AUSTRALIA
38,2020-04-27,Surfers Point Prevelly Western Australia AUSTRALIA,Surfers Point,Western Australia,AUSTRALIA,-33.976738299999994,114.98598359999998,1587913200,2020-04-26T15:00:00+00:00,MSL,-0.5069694137573242,0.5164125823974609,2020-04-27|Surfers Point Prevelly Western Australia AUSTRALIA
39,2020-04-27,South Point Gracetown Western Australia AUSTRALIA,South Point,Western Australia,AUSTRALIA,-33.8638221,114.97694579999998,1587913200,2020-04-26T15:00:00+00:00,MSL,-0.4978323745727539,0.5088227462768554,2020-04-27|South Point Gracetown Western Australia AUSTRALIA
40,2020-04-27,Lefthanders Margaret River Area Western Australia AUSTRALIA,Lefthanders,Western Australia,AUSTRALIA,-33.8752851,114.98611319999999,1587913200,2020-04-26T15:00:00+00:00,MSL,-0.4978323745727539,0.5088227462768554,2020-04-27|Lefthanders Margaret River Area Western Australia AUSTRALIA
41,2020-04-27,Cobblestones Margaret River Area Western Australia AUSTRALIA,Cobblestones,Western Australia,AUSTRALIA,-33.9610465,115.0767388,1587913200,2020-04-26T15:00:00+00:00,MSL,-0.5069694137573242,0.5164125823974609,2020-04-27|Cobblestones Margaret River Area Western Australia AUSTRALIA
42,2020-04-27,Watermans Bay Western Australia AUSTRALIA,Waterman's Bay,Western Australia,AUSTRALIA,-31.849601300000003,115.75490520000001,1587913200,2020-04-26T15:00:00+00:00,MSL,-0.4369647216796875,0.4655389404296875,2020-04-27|Watermans Bay Western Australia AUSTRALIA
43,2020-04-27,Lorne Victoria AUSTRALIA,Lorne,Victoria,AUSTRALIA,-38.5366556,143.97154840000002,1587913200,2020-04-26T15:00:00+00:00,MSL,-1.3293061828613282,1.203362274169922,2020-04-27|Lorne Victoria AUSTRALIA
44,2020-04-27,Winkipop Victoria AUSTRALIA,Winkipop,Victoria,AUSTRALIA,-38.3680831,144.28495519999998,1587913200,2020-04-26T15:00:00+00:00,MSL,-1.4305735778808595,1.2872817993164063,2020-04-27|Winkipop Victoria AUSTRALIA
45,2020-04-27,Little Congwong Beach La Perouse New South Wales AUSTRALIA,Little Congwong Beach,New South Wales,AUSTRALIA,-33.9915566,151.2383626,1587913200,2020-04-26T15:00:00+00:00,MSL,-0.8590452575683594,1.0404325103759766,2020-04-27|Little Congwong Beach La Perouse New South Wales AUSTRALIA
46,2020-04-27,Westernport Bay Victoria AUSTRALIA,Westernport Bay,Victoria,AUSTRALIA,-38.3563059,145.2480193,1587913200,2020-04-26T15:00:00+00:00,MSL,-0.8191699981689453,0.7620406341552735,2020-04-27|Westernport Bay Victoria AUSTRALIA
47,2020-04-27,Surf Beach Kiama New South Wales AUSTRALIA,Surf Beach,New South Wales,AUSTRALIA,-34.6816667,150.8511111,1587913200,2020-04-26T15:00:00+00:00,MSL,-0.8550900268554688,1.027861328125,2020-04-27|Surf Beach Kiama New South Wales AUSTRALIA
48,2020-04-27,Mooloolaba Beach Queensland AUSTRALIA,Mooloolaba Beach,Queensland,AUSTRALIA,-26.680943699999997,153.12166499999998,1587913200,2020-04-26T15:00:00+00:00,MSL,-0.941897201538086,1.2162120056152343,2020-04-27|Mooloolaba Beach Queensland AUSTRALIA
49,2020-04-27,Avalon Point Manurah Western Australia AUSTRALIA,Avalon Point,Western Australia,AUSTRALIA,-32.5947053,115.6329821,1587913200,2020-04-26T15:00:00+00:00,MSL,-0.43359607696533203,0.4594403076171875,2020-04-27|Avalon Point Manurah Western Australia AUSTRALIA
50,2020-04-27,Cone Bay Western Australia AUSTRALIA,Cone Bay,Western Australia,AUSTRALIA,-16.4683333,123.53527779999999,1587913200,2020-04-26T15:00:00+00:00,MSL,-4.563910217285156,4.6630096435546875,2020-04-27|Cone Bay Western Australia AUSTRALIA
51,2020-04-27,Lizard Island Queensland AUSTRALIA,Lizard Island,Queensland,AUSTRALIA,-14.668043300000003,145.463777,1587913200,2020-04-26T15:00:00+00:00,MSL,-1.4198112487792969,1.4805747985839843,2020-04-27|Lizard Island Queensland AUSTRALIA
52,2020-04-27,Martin Islet New South Wales AUSTRALIA,Martin Islet,New South Wales,AUSTRALIA,-34.4943401,150.93782480000002,1587913200,2020-04-26T15:00:00+00:00,MSL,-0.8555808258056641,1.0318485260009767,2020-04-27|Martin Islet New South Wales AUSTRALIA
53,2020-04-27,Avoca Beach New South Wales AUSTRALIA,Avoca Beach,New South Wales,AUSTRALIA,-33.465,151.435,1587913200,2020-04-26T15:00:00+00:00,MSL,-0.8683502197265625,1.0624525451660156,2020-04-27|Avoca Beach New South Wales AUSTRALIA
54,2020-04-27,Magnetic Island Queensland AUSTRALIA,Magnetic Island,Queensland,AUSTRALIA,-19.135865300000003,146.8423556,1587913200,2020-04-26T15:00:00+00:00,MSL,-1.8155152893066406,1.923305206298828,2020-04-27|Magnetic Island Queensland AUSTRALIA
55,2020-04-27,Birubi Point New South Wales AUSTRALIA,Birubi Point,New South Wales,AUSTRALIA,-32.7884091,152.08031430000003,1587913200,2020-04-26T15:00:00+00:00,MSL,-0.8730878448486328,1.0808245849609375,2020-04-27|Birubi Point New South Wales AUSTRALIA
56,2020-04-27,Normanville South Australia AUSTRALIA,Normanville,South Australia,AUSTRALIA,-35.446382799999995,138.3215845,1587913200,2020-04-26T15:00:00+00:00,MSL,-1.002825698852539,1.206549072265625,2020-04-27|Normanville South Australia AUSTRALIA
57,2020-04-27,Gracetown Western Australia AUSTRALIA,Gracetown,Western Australia,AUSTRALIA,-33.8641558,114.9882251,1587913200,2020-04-26T15:00:00+00:00,MSL,-0.4978323745727539,0.5088227462768554,2020-04-27|Gracetown Western Australia AUSTRALIA
58,2020-04-27,Esperance Westerm Australia AUSTRALIA,Esperance,Western Australia,AUSTRALIA,-33.86131029999999,121.89142379999998,1587913200,2020-04-26T15:00:00+00:00,MSL,-0.5073202514648437,0.6431026458740234,2020-04-27|Esperance Westerm Australia AUSTRALIA
59,2020-04-27,Sams Creek area Westerm Australia AUSTRALIA,Sam's Creek area,Western Australia,AUSTRALIA,-20.6223242,117.1836798,1587913200,2020-04-26T15:00:00+00:00,MSL,-2.866119384765625,2.82013916015625,2020-04-27|Sams Creek area Westerm Australia AUSTRALIA
60,2020-04-27,Iluka Beach New South Wales AUSTRALIA,Iluka Beach,New South Wales,AUSTRALIA,-29.4120103,153.3647477,1587913200,2020-04-26T15:00:00+00:00,MSL,-0.8917601013183594,1.165411376953125,2020-04-27|Iluka Beach New South Wales AUSTRALIA
61,2020-04-27,Cathedral Rock Victoria AUSTRALIA,Cathedral Rock,Victoria,AUSTRALIA,-31.434438800000002,120.85630420000001,1587913200,2020-04-26T15:00:00+00:00,MSL,-0.509289207458496,0.6326274108886719,2020-04-27|Cathedral Rock Victoria AUSTRALIA
62,2020-04-27,Floreat Beach Western Australia AUSTRALIA,Floreat Beach,Western Australia,AUSTRALIA,-31.928959399999997,115.7548856,1587913200,2020-04-26T15:00:00+00:00,MSL,-0.43631591796875,0.46526737213134767,2020-04-27|Floreat Beach Western Australia AUSTRALIA
63,2020-04-27,Point Casuarina Bunbury Western Australia AUSTRALIA,Point Casuarina,Western Australia,AUSTRALIA,-33.3153009,115.63711090000001,1587913200,2020-04-26T15:00:00+00:00,MSL,-0.4827304458618164,0.4932203674316406,2020-04-27|Point Casuarina Bunbury Western Australia AUSTRALIA
64,2020-04-27,Flinders Mornington Penisula Victoria AUSTRALIA,Flinders,Victoria,AUSTRALIA,-38.474000000000004,145.02200000000002,1587913200,2020-04-26T15:00:00+00:00,MSL,-1.540248565673828,1.4043951416015625,2020-04-27|Flinders Mornington Penisula Victoria AUSTRALIA
65,2020-04-27,Evans Head New South Wales AUSTRALIA,Evans Head,New South Wales,AUSTRALIA,-29.108617100000004,153.4217078,1587913200,2020-04-26T15:00:00+00:00,MSL,-0.8919248962402344,1.1726897430419922,2020-04-27|Evans Head New South Wales AUSTRALIA
66,2020-04-27,Weipa Queensland AUSTRALIA,Weipa,Queensland,AUSTRALIA,-12.6492936,141.84699009999997,1587913200,2020-04-26T15:00:00+00:00,MSL,-1.4110360717773438,1.199729232788086,2020-04-27|Weipa Queensland AUSTRALIA
67,2020-04-27,Kelpies near Wylie Bay Western Australia AUSTRALIA,Kelpies near Wylie Bay,Western Australia,AUSTRALIA,-33.8324777,121.9970721,1587913200,2020-04-26T15:00:00+00:00,MSL,-0.5076144409179687,0.6444322967529297,2020-04-27|Kelpies near Wylie Bay Western Australia AUSTRALIA
68,2020-04-27,Moreton Bay Queensland AUSTRALIA,Moreton Bay,Queensland,AUSTRALIA,-27.3123953,153.3446649,1587913200,2020-04-26T15:00:00+00:00,MSL,-1.305577392578125,1.5723896789550782,2020-04-27|Moreton Bay Queensland AUSTRALIA
69,2020-04-27,The Farm New South Wales AUSTRALIA,The Farm,New South Wales,AUSTRALIA,-34.071999999999996,150.718,1587913200,2020-04-26T15:00:00+00:00,MSL,-0.8563024139404297,1.0347895050048828,2020-04-27|The Farm New South Wales AUSTRALIA
70,2020-04-27,Mauds Point Western Australia AUSTRALIA,Mauds Point,Western Australia,AUSTRALIA,-31.954288399999996,115.8624252,1587913200,2020-04-26T15:00:00+00:00,MSL,-0.43631591796875,0.46526737213134767,2020-04-27|Mauds Point Western Australia AUSTRALIA
71,2020-04-27,Falcon Bay Beach Mandurah Western Australia AUSTRALIA,Falcon Bay Beach,Western Australia,AUSTRALIA,-32.5785751,115.65358130000001,1587913200,2020-04-26T15:00:00+00:00,MSL,-0.43346160888671875,0.4606317520141602,2020-04-27|Falcon Bay Beach Mandurah Western Australia AUSTRALIA
72,2020-04-27,Eva Rock Queensland AUSTRALIA,Eva Rock,Queensland,AUSTRALIA,-18.235612,146.3256112,1587913200,2020-04-26T15:00:00+00:00,MSL,-1.668816375732422,1.7502288818359375,2020-04-27|Eva Rock Queensland AUSTRALIA
73,2020-04-27,Boot Reef Torres Strait Queensland AUSTRALIA,Boot Reef,Queensland,AUSTRALIA,-10.2199025,141.93685449999998,1587913200,2020-04-26T15:00:00+00:00,MSL,-2.5010195922851564,1.4975723266601562,2020-04-27|Boot Reef Torres Strait Queensland AUSTRALIA
74,2020-04-27,Clairview Queensland AUSTRALIA,Clairview,Queensland,AUSTRALIA,-22.0422664,149.4835735,1587913200,2020-04-26T15:00:00+00:00,MSL,-4.686667785644532,4.7845849609375,2020-04-27|Clairview Queensland AUSTRALIA
75,2020-04-27,Merimbula New South Wales AUSTRALIA,Merimbula,New South Wales,AUSTRALIA,-36.8875485,149.90587480000002,1587913200,2020-04-26T15:00:00+00:00,MSL,-0.8271729278564454,0.9734864044189453,2020-04-27|Merimbula New South Wales AUSTRALIA
76,2020-04-27,Bundegi Sanctuary Zone Ningaloo Western Australia AUSTRALIA,Bundegi Sanctuary Zone,Western Australia,AUSTRALIA,-22.6799051,113.69804909999999,1587913200,2020-04-26T15:00:00+00:00,MSL,-0.7819728088378907,0.7885501861572266,2020-04-27|Bundegi Sanctuary Zone Ningaloo Western Australia AUSTRALIA
77,2020-04-27,Trigg Beach Western Australia AUSTRALIA,Trigg Beach,Western Australia,AUSTRALIA,-31.8779189,115.7517755,1587913200,2020-04-26T15:00:00+00:00,MSL,-0.4369647216796875,0.4655389404296875,2020-04-27|Trigg Beach Western Australia AUSTRALIA
78,2020-04-27,Booti Booti National Park New South Wales AUSTRALIA,Booti Booti National Park,New South Wales,AUSTRALIA,-32.312709600000005,152.5179343,1587913200,2020-04-26T15:00:00+00:00,MSL,-0.8739630889892578,1.1038597106933594,2020-04-27|Booti Booti National Park New South Wales AUSTRALIA
79,2020-04-27,Queenscliff Victoria AUSTRALIA,Queenscliff,Victoria,AUSTRALIA,-38.2677746,144.6286897,1587913200,2020-04-26T15:00:00+00:00,MSL,-1.4889448547363282,1.3381590270996093,2020-04-27|Queenscliff Victoria AUSTRALIA
80,2020-04-27,Broken Head Beach New South Wales AUSTRALIA,Broken Head Beach,New South Wales,AUSTRALIA,-28.701846399999997,153.6139946,1587913200,2020-04-26T15:00:00+00:00,MSL,-0.8892627716064453,1.1675648498535156,2020-04-27|Broken Head Beach New South Wales AUSTRALIA
81,2020-04-27,Kings Beach Caloundra Queensland AUSTRALIA,Kings Beach,Queensland,AUSTRALIA,-26.801,153.141,1587913200,2020-04-26T15:00:00+00:00,MSL,-0.9471244049072266,1.2240269470214844,2020-04-27|Kings Beach Caloundra Queensland AUSTRALIA
82,2020-04-27,Lighthouse Beach Ballina New South Wales AUSTRALIA,Lighthouse Beach,New South Wales,AUSTRALIA,-28.8725999,153.58992469999998,1587913200,2020-04-26T15:00:00+00:00,MSL,-0.8866371154785156,1.1665674591064452,2020-04-27|Lighthouse Beach Ballina New South Wales AUSTRALIA
83,2020-04-27,Thirteenth Beach Victoria AUSTRALIA,Thirteenth Beach,Victoria,AUSTRALIA,-38.2852436,144.4587149,1587913200,2020-04-26T15:00:00+00:00,MSL,-1.4542538452148437,1.3114187622070312,2020-04-27|Thirteenth Beach Victoria AUSTRALIA
84,2020-04-27,Bells Beach Victoria AUSTRALIA,Bells Beach,Victoria,AUSTRALIA,-38.366944000000004,144.284722,1587913200,2020-04-26T15:00:00+00:00,MSL,-1.4305735778808595,1.2872817993164063,2020-04-27|Bells Beach Victoria AUSTRALIA
85,2020-04-27,Bunbury Western Australia AUSTRALIA,Bunbury,Western Australia,AUSTRALIA,-33.3209971,115.63834820000001,1587913200,2020-04-26T15:00:00+00:00,MSL,-0.4827304458618164,0.4932203674316406,2020-04-27|Bunbury Western Australia AUSTRALIA
86,2020-04-27,Injidup Western Australia AUSTRALIA,Injidup,Western Australia,AUSTRALIA,-33.6930914,114.9857991,1587913200,2020-04-26T15:00:00+00:00,MSL,-0.49083980560302737,0.4997093963623047,2020-04-27|Injidup Western Australia AUSTRALIA
87,2020-04-27,Near Albany Western Australia AUSTRALIA,Near Albany,Western Australia,AUSTRALIA,-35.0269344,117.8837206,1587913200,2020-04-26T15:00:00+00:00,MSL,-0.5100648880004883,0.5887093353271484,2020-04-27|Near Albany Western Australia AUSTRALIA
88,2020-04-27,Clifton Beach Tasmania AUSTRALIA,Clifton Beach,Tasmania,AUSTRALIA,-42.989444,147.52166699999998,1587913200,2020-04-26T15:00:00+00:00,MSL,-0.7650376892089844,0.7426953125,2020-04-27|Clifton Beach Tasmania AUSTRALIA
89,2020-04-27,20 k off The Spit off the Gold Coast Queensland AUSTRALIA,20 k off The Spit,Queensland,AUSTRALIA,-27.9352516,153.43347680000002,1587913200,2020-04-26T15:00:00+00:00,MSL,-0.8968606567382813,1.1874234771728516,2020-04-27|20 k off The Spit off the Gold Coast Queensland AUSTRALIA
90,2020-04-27,Palm Cove Queensland AUSTRALIA,Palm Cove,Queensland,AUSTRALIA,-16.74405,145.67095,1587913200,2020-04-26T15:00:00+00:00,MSL,-1.49503173828125,1.5479745483398437,2020-04-27|Palm Cove Queensland AUSTRALIA
91,2020-04-27,Coral Bay Western Australia AUSTRALIA,Coral Bay,Western Australia,AUSTRALIA,-23.143670800000002,113.77153590000002,1587913200,2020-04-26T15:00:00+00:00,MSL,-0.7716323089599609,0.7754791259765625,2020-04-27|Coral Bay Western Australia AUSTRALIA
92,2020-04-27,Mindarie Western Australia AUSTRALIA,Mindarie,Western Australia,AUSTRALIA,-31.6900771,115.7060487,1587913200,2020-04-26T15:00:00+00:00,MSL,-0.43866294860839844,0.4656050109863281,2020-04-27|Mindarie Western Australia AUSTRALIA
93,2020-04-27,Kingscliff New South Wales AUSTRALIA,Kingscliff,New South Wales,AUSTRALIA,-28.264593800000004,153.5776602,1587913200,2020-04-26T15:00:00+00:00,MSL,-0.8898392486572265,1.171876449584961,2020-04-27|Kingscliff New South Wales AUSTRALIA
94,2020-04-27,Falcon Beach Mandurah Western Australia AUSTRALIA,Falcon Beach,Western Australia,AUSTRALIA,-32.5785751,115.65358130000001,1587913200,2020-04-26T15:00:00+00:00,MSL,-0.43346160888671875,0.4606317520141602,2020-04-27|Falcon Beach Mandurah Western Australia AUSTRALIA
95,2020-04-27,First Sun Beach Byron Bay New South Wales AUSTRALIA,First Sun Beach,New South Wales,AUSTRALIA,-28.6410983,153.611705,1587913200,2020-04-26T15:00:00+00:00,MSL,-0.8891409301757812,1.1658721160888672,2020-04-27|First Sun Beach Byron Bay New South Wales AUSTRALIA
96,2020-04-27,Bombo Beach New South Wales AUSTRALIA,Bombo Beach,New South Wales,AUSTRALIA,-34.656041200000004,150.8556659,1587913200,2020-04-26T15:00:00+00:00,MSL,-0.854715576171875,1.0285357666015624,2020-04-27|Bombo Beach New South Wales AUSTRALIA
97,2020-04-27,North Cronulla Beach New South Wales AUSTRALIA,North Cronulla Beach,New South Wales,AUSTRALIA,-34.0496066,151.1572211,1587913200,2020-04-26T15:00:00+00:00,MSL,-0.8580573272705078,1.0385281372070312,2020-04-27|North Cronulla Beach New South Wales AUSTRALIA
98,2020-04-27,Wrights Bay South Australia AUSTRALIA,Wrights Bay,South Australia,AUSTRALIA,-37.033055600000004,139.7411111,1587913200,2020-04-26T15:00:00+00:00,MSL,-0.552247314453125,0.6168231582641601,2020-04-27|Wrights Bay South Australia AUSTRALIA
99,2020-04-27,Nettley Bay Tasmania AUSTRALIA,Nettley Bay,Tasmania,AUSTRALIA,-40.93,144.62,1587913200,2020-04-26T15:00:00+00:00,MSL,-0.5018727111816407,0.6172378540039063,2020-04-27|Nettley Bay Tasmania AUSTRALIA
100,2020-04-27,Stradbroke Island Queensland AUSTRALIA,Stradbroke Island,Queensland,AUSTRALIA,-27.5323174,153.46260769999998,1587913200,2020-04-26T15:00:00+00:00,MSL,-0.8956623840332031,1.1910102081298828,2020-04-27|Stradbroke Island Queensland AUSTRALIA
101,2020-04-27,Hams Beach New South Wales AUSTRALIA,Hams Beach,New South Wales,AUSTRALIA,-33.097531,151.658097,1587913200,2020-04-26T15:00:00+00:00,MSL,-0.8721678924560546,1.0741928100585938,2020-04-27|Hams Beach New South Wales AUSTRALIA
102,2020-04-27,Happy Valley Beach Caloundra Queensland AUSTRALIA,Happy Valley Beach,Queensland,AUSTRALIA,-26.8071839,153.13424890000002,1587913200,2020-04-26T15:00:00+00:00,MSL,-0.9471244049072266,1.2240269470214844,2020-04-27|Happy Valley Beach Caloundra Queensland AUSTRALIA
103,2020-04-27,Heron Island Queensland AUSTRALIA,Heron Island,Queensland,AUSTRALIA,-23.442297600000003,151.9148004,1587913200,2020-04-26T15:00:00+00:00,MSL,-1.4514231872558594,1.7735586547851563,2020-04-27|Heron Island Queensland AUSTRALIA
104,2020-04-27,Miall Island Queensland AUSTRALIA,Miall Island,Queensland,AUSTRALIA,-23.1528552,150.9052831,1587913200,2020-04-26T15:00:00+00:00,MSL,-2.583948669433594,2.8121994018554686,2020-04-27|Miall Island Queensland AUSTRALIA
105,2020-04-27,Bondi Beach New South Wales AUSTRALIA,Bondi Beach,New South Wales,AUSTRALIA,-33.8914755,151.2766845,1587913200,2020-04-26T15:00:00+00:00,MSL,-0.8615251159667969,1.0466612243652345,2020-04-27|Bondi Beach New South Wales AUSTRALIA
106,2020-04-27,Lake Macquarie New South Wales AUSTRALIA,Lake Macquarie,New South Wales,AUSTRALIA,-33.031122499999995,151.56032439999998,1587913200,2020-04-26T15:00:00+00:00,MSL,-0.8721678924560546,1.0741928100585938,2020-04-27|Lake Macquarie New South Wales AUSTRALIA
107,2020-04-27,East Ballina New South Wales AUSTRALIA,East Ballina,New South Wales,AUSTRALIA,-28.8537305,153.5865127,1587913200,2020-04-26T15:00:00+00:00,MSL,-0.8866371154785156,1.1665674591064452,2020-04-27|East Ballina New South Wales AUSTRALIA
108,2020-04-27,Bald Island Western Australia AUSTRALIA,Bald Island,Western Australia,AUSTRALIA,-34.9233188,118.46887759999998,1587913200,2020-04-26T15:00:00+00:00,MSL,-0.503349609375,0.5907572174072265,2020-04-27|Bald Island Western Australia AUSTRALIA
109,2020-04-27,Pyramids Beach Western Australia AUSTRALIA,Pyramids Beach,Western Australia,AUSTRALIA,-32.603604100000005,115.6304031,1587913200,2020-04-26T15:00:00+00:00,MSL,-0.43359607696533203,0.4594403076171875,2020-04-27|Pyramids Beach Western Australia AUSTRALIA
110,2020-04-27,Russel Island Frankland Group Queensland AUSTRALIA,Russel Island,Queensland,AUSTRALIA,-17.2291545,146.09400219999998,1587913200,2020-04-26T15:00:00+00:00,MSL,-1.5129347229003907,1.5807850646972657,2020-04-27|Russel Island Frankland Group Queensland AUSTRALIA
111,2020-04-27,North Shelly Beach New South Wales AUSTRALIA,North Shelly Beach,New South Wales,AUSTRALIA,-33.3699595,151.4858695,1587913200,2020-04-26T15:00:00+00:00,MSL,-0.8683502197265625,1.0624525451660156,2020-04-27|North Shelly Beach New South Wales AUSTRALIA
112,2020-04-27,Hallidays Point New South Wales AUSTRALIA,Hallidays Point,New South Wales,AUSTRALIA,-32.0683509,152.51499819999998,1587913200,2020-04-26T15:00:00+00:00,MSL,-0.8732811737060547,1.1130268096923828,2020-04-27|Hallidays Point New South Wales AUSTRALIA
113,2020-04-27,Tyrendarra Beach Victoria AUSTRALIA,Tyrendarra Beach,Victoria,AUSTRALIA,-38.216667,141.783333,1587913200,2020-04-26T15:00:00+00:00,MSL,-0.5955508422851562,0.5941074752807617,2020-04-27|Tyrendarra Beach Victoria AUSTRALIA
114,2020-04-27,Lachan Island Mercury Passage Tasmania AUSTRALIA,Lachan Island,Tasmania,AUSTRALIA,-42.642743599999996,147.97761830000002,1587913200,2020-04-26T15:00:00+00:00,MSL,-0.732027359008789,0.7016661071777344,2020-04-27|Lachan Island Mercury Passage Tasmania AUSTRALIA
115,2020-04-27,Tyrendarra Beach near Portland Victoria AUSTRALIA,Tyrendarra Beach near Portland,Victoria,AUSTRALIA,-38.2507144,141.806322,1587913200,2020-04-26T15:00:00+00:00,MSL,-0.5955508422851562,0.5941074752807617,2020-04-27|Tyrendarra Beach near Portland Victoria AUSTRALIA
116,2020-04-27,Flat Rock Yamba New South Wales AUSTRALIA,Flat Rock,New South Wales,AUSTRALIA,-29.4372663,153.3652792,1587913200,2020-04-26T15:00:00+00:00,MSL,-0.8917601013183594,1.165411376953125,2020-04-27|Flat Rock Yamba New South Wales AUSTRALIA
117,2020-04-27,Rottnest Island Western Australia AUSTRALIA,Rottnest Island,Western Australia,AUSTRALIA,-32.0063677,115.5073002,1587913200,2020-04-26T15:00:00+00:00,MSL,-0.43395423889160156,0.46272380828857423,2020-04-27|Rottnest Island Western Australia AUSTRALIA
118,2020-04-27,Denmark Western Australia AUSTRALIA,Denmark,Western Australia,AUSTRALIA,-34.9617565,117.35065,1587913200,2020-04-26T15:00:00+00:00,MSL,-0.5060247421264649,0.5597885131835938,2020-04-27|Denmark Western Australia AUSTRALIA
119,2020-04-27,Saltwater Beach New South Wales AUSTRALIA,Saltwater Beach,New South Wales,AUSTRALIA,-32.010831800000005,152.5628989,1587913200,2020-04-26T15:00:00+00:00,MSL,-0.8732811737060547,1.1130268096923828,2020-04-27|Saltwater Beach New South Wales AUSTRALIA
120,2020-04-27,Fishery Bay South Australia AUSTRALIA,Fishery Bay,South Australia,AUSTRALIA,-34.9141667,135.6861111,1587913200,2020-04-26T15:00:00+00:00,MSL,-0.5190165710449218,0.7080857849121094,2020-04-27|Fishery Bay South Australia AUSTRALIA
121,2020-04-27,Belongil Beach Byron Bay New South Wales AUSTRALIA,Belongil Beach,New South Wales,AUSTRALIA,-28.633732799999997,153.6003455,1587913200,2020-04-26T15:00:00+00:00,MSL,-0.8891409301757812,1.1658721160888672,2020-04-27|Belongil Beach Byron Bay New South Wales AUSTRALIA
122,2020-04-27,McKenzies Beach New South Wales AUSTRALIA,McKenzies Beach,New South Wales,AUSTRALIA,-35.8043718,150.226363,1587913200,2020-04-26T15:00:00+00:00,MSL,-0.8425437927246093,0.993175277709961,2020-04-27|McKenzies Beach New South Wales AUSTRALIA
123,2020-04-27,Julian Rocks Byron Bay New South Wales AUSTRALIA,Julian Rocks,New South Wales,AUSTRALIA,-28.643715999999998,153.615072,1587913200,2020-04-26T15:00:00+00:00,MSL,-0.8891409301757812,1.1658721160888672,2020-04-27|Julian Rocks Byron Bay New South Wales AUSTRALIA
124,2020-04-27,Shelly Beach New South Wales AUSTRALIA,Shelly Beach,New South Wales,AUSTRALIA,-33.3699595,151.4858695,1587913200,2020-04-26T15:00:00+00:00,MSL,-0.8683502197265625,1.0624525451660156,2020-04-27|Shelly Beach New South Wales AUSTRALIA
125,2020-04-27,Seven Mile Beach Byron Bay New South Wales AUSTRALIA,Seven Mile Beach,New South Wales,AUSTRALIA,-28.7186968,153.6118865,1587913200,2020-04-26T15:00:00+00:00,MSL,-0.8892627716064453,1.1675648498535156,2020-04-27|Seven Mile Beach Byron Bay New South Wales AUSTRALIA
126,2020-04-27,Mereweather Beach New South Wales AUSTRALIA,Mereweather Beach,New South Wales,AUSTRALIA,-32.9465493,151.7599466,1587913200,2020-04-26T15:00:00+00:00,MSL,-0.8734986114501954,1.0784809112548828,2020-04-27|Mereweather Beach New South Wales AUSTRALIA
127,2020-04-27,Nerang River Surfers Paradise Queensland AUSTRALIA,Nerang River,Queensland,AUSTRALIA,-27.9889011,153.4257263,1587913200,2020-04-26T15:00:00+00:00,MSL,-0.8968395233154297,1.1862823486328125,2020-04-27|Nerang River Surfers Paradise Queensland AUSTRALIA
128,2020-04-27,Flat Rock New South Wales AUSTRALIA,Flat Rock,New South Wales,AUSTRALIA,-35.2341806,150.52992930000002,1587913200,2020-04-26T15:00:00+00:00,MSL,-0.8454113006591797,1.0022213745117188,2020-04-27|Flat Rock New South Wales AUSTRALIA
129,2020-04-27,Wategos Beach Byon Bay New South Wales AUSTRALIA,Wategos Beach,New South Wales,AUSTRALIA,-28.6364053,153.633824,1587913200,2020-04-26T15:00:00+00:00,MSL,-0.8891409301757812,1.1658721160888672,2020-04-27|Wategos Beach Byon Bay New South Wales AUSTRALIA
130,2020-04-27,Off Blacksmith Beach New South Wales AUSTRALIA,Off Blacksmith Beach,New South Wales,AUSTRALIA,-33.0515891,151.6680509,1587913200,2020-04-26T15:00:00+00:00,MSL,-0.8721678924560546,1.0741928100585938,2020-04-27|Off Blacksmith Beach New South Wales AUSTRALIA
131,2020-04-27,Mollymook Beach Bannister Head New South Wales AUSTRALIA,Mollymook Beach,New South Wales,AUSTRALIA,-35.32012279999999,150.47556730000002,1587913200,2020-04-26T15:00:00+00:00,MSL,-0.8441047668457031,1.0007308197021485,2020-04-27|Mollymook Beach Bannister Head New South Wales AUSTRALIA
132,2020-04-27,Bherwerre Beach New South Wales AUSTRALIA,Bherwerre Beach,New South Wales,AUSTRALIA,-35.163734600000005,150.6497392,1587913200,2020-04-26T15:00:00+00:00,MSL,-0.8473420715332032,1.0063471221923828,2020-04-27|Bherwerre Beach New South Wales AUSTRALIA
133,2020-04-27,Three Stripes near Cheynes Beach Western Australia AUSTRALIA,Three Stripes near Cheynes Beach,Western Australia,AUSTRALIA,-34.88414,118.404629,1587913200,2020-04-26T15:00:00+00:00,MSL,-0.5060839080810546,0.5930007171630859,2020-04-27|Three Stripes near Cheynes Beach Western Australia AUSTRALIA
134,2020-04-27,Paradise Beach Victoria AUSTRALIA,Paradise Beach,Victoria,AUSTRALIA,-38.1992076,147.4033451,1587913200,2020-04-26T15:00:00+00:00,MSL,-0.7649600219726562,0.8139237976074218,2020-04-27|Paradise Beach Victoria AUSTRALIA
135,2020-04-27,Rudder Reef Queensland AUSTRALIA,Rudder Reef,Queensland,AUSTRALIA,-16.1906218,145.6990989,1587913200,2020-04-26T15:00:00+00:00,MSL,-1.4590480041503906,1.5178468322753906,2020-04-27|Rudder Reef Queensland AUSTRALIA
136,2020-04-27,Pyramids Beach Port Bouvard Western Australia AUSTRALIA,Pyramids Beach,Western Australia,AUSTRALIA,-32.603604100000005,115.6304031,1587913200,2020-04-26T15:00:00+00:00,MSL,-0.43359607696533203,0.4594403076171875,2020-04-27|Pyramids Beach Port Bouvard Western Australia AUSTRALIA
137,2020-04-27,Freo Western Australia AUSTRALIA,Freo,Western Australia,AUSTRALIA,-32.051819099999996,115.75510849999999,1587913200,2020-04-26T15:00:00+00:00,MSL,-0.4351004028320313,0.4642658233642578,2020-04-27|Freo Western Australia AUSTRALIA
138,2020-04-27,Moonee Beach New South Wales AUSTRALIA,Moonee Beach,New South Wales,AUSTRALIA,-30.1895467,153.1501948,1587913200,2020-04-26T15:00:00+00:00,MSL,-0.8831946563720703,1.138968505859375,2020-04-27|Moonee Beach New South Wales AUSTRALIA
139,2020-04-27,Wallabi Point New South Wales AUSTRALIA,Wallabi Point,New South Wales,AUSTRALIA,-31.992048600000004,152.5590443,1587913200,2020-04-26T15:00:00+00:00,MSL,-0.8756861114501953,1.1142408752441406,2020-04-27|Wallabi Point New South Wales AUSTRALIA
140,2020-04-27,Castle Rock north of Dunsborough Western Australia AUSTRALIA,Castle Rock,Western Australia,AUSTRALIA,-33.583762899999996,115.09000060000001,1587913200,2020-04-26T15:00:00+00:00,MSL,-0.487705192565918,0.49474563598632815,2020-04-27|Castle Rock north of Dunsborough Western Australia AUSTRALIA
141,2020-04-27,Kelpids Beach Wylie Bay Esperance Western Australia AUSTRALIA,Kelpids Beach,Western Australia,AUSTRALIA,-33.8356954,121.9840825,1587913200,2020-04-26T15:00:00+00:00,MSL,-0.5076144409179687,0.6444322967529297,2020-04-27|Kelpids Beach Wylie Bay Esperance Western Australia AUSTRALIA
142,2020-04-27,Clarkes Beach Byron Bay New South Wales AUSTRALIA,Clarkes Beach,New South Wales,AUSTRALIA,-28.6396907,153.6272755,1587913200,2020-04-26T15:00:00+00:00,MSL,-0.8891409301757812,1.1658721160888672,2020-04-27|Clarkes Beach Byron Bay New South Wales AUSTRALIA
143,2020-04-27,Gnaraloo Western Australia AUSTRALIA,Gnaraloo,Western Australia,AUSTRALIA,-23.8214,113.523903,1587913200,2020-04-26T15:00:00+00:00,MSL,-0.7474462127685547,0.7477761840820313,2020-04-27|Gnaraloo Western Australia AUSTRALIA
144,2020-04-27,Middleton Point Fleurieu Peninsula South Australia AUSTRALIA,Middleton Point,South Australia,AUSTRALIA,-35.5142799,138.70844,1587913200,2020-04-26T15:00:00+00:00,MSL,-0.5677129745483398,0.7340298461914062,2020-04-27|Middleton Point Fleurieu Peninsula South Australia AUSTRALIA
145,2020-04-27,Horizontal Falls Western Australia AUSTRALIA,Horizontal Falls,Western Australia,AUSTRALIA,-17.947279,122.231078,1587913200,2020-04-26T15:00:00+00:00,MSL,-4.810763854980468,4.874821472167969,2020-04-27|Horizontal Falls Western Australia AUSTRALIA
146,2020-04-27,Parsons Beach Fleurieu Peninsula South Australia AUSTRALIA,Parsons Beach,South Australia,AUSTRALIA,-35.630574200000005,138.4671696,1587913200,2020-04-26T15:00:00+00:00,MSL,-0.5263260269165039,0.7015009307861328,2020-04-27|Parsons Beach Fleurieu Peninsula South Australia AUSTRALIA
147,2020-04-27,Seven Mile Beach Gerroa New South Wales AUSTRALIA,Seven Mile Beach,New South Wales,AUSTRALIA,-34.7699,150.813133,1587913200,2020-04-26T15:00:00+00:00,MSL,-0.8547678375244141,1.0267119598388672,2020-04-27|Seven Mile Beach Gerroa New South Wales AUSTRALIA
148,2020-04-27,Nerang River near Chevron Island Queensland AUSTRALIA,Nerang River near Chevron Island,Queensland,AUSTRALIA,-27.997344599999998,153.4198464,1587913200,2020-04-26T15:00:00+00:00,MSL,-0.8968395233154297,1.1862823486328125,2020-04-27|Nerang River near Chevron Island Queensland AUSTRALIA
149,2020-04-27,The Australian Shark and Ray Centre New South Wales AUSTRALIA,The Australian Shark and Ray Centre,New South Wales,AUSTRALIA,-32.7706261,151.9986267,1587913200,2020-04-26T15:00:00+00:00,MSL,-0.8730878448486328,1.0808245849609375,2020-04-27|The Australian Shark and Ray Centre New South Wales AUSTRALIA
150,2020-04-27,Elliston Eyre Peninsula South Australia AUSTRALIA,Elliston,South Australia,AUSTRALIA,-34.3333333,135.75,1587913200,2020-04-26T15:00:00+00:00,MSL,-0.6303927993774414,0.9010382080078125,2020-04-27|Elliston Eyre Peninsula South Australia AUSTRALIA
151,2020-04-27,South Passage south of Coral Bay Western Australia AUSTRALIA,South Passage,Western Australia,AUSTRALIA,-23.143670800000002,113.77153590000002,1587913200,2020-04-26T15:00:00+00:00,MSL,-0.7716323089599609,0.7754791259765625,2020-04-27|South Passage south of Coral Bay Western Australia AUSTRALIA
152,2020-04-27,Tathra New South Wales AUSTRALIA,Tathra,New South Wales,AUSTRALIA,-36.7360215,149.9674229,1587913200,2020-04-26T15:00:00+00:00,MSL,-0.8274745178222657,0.9729739379882812,2020-04-27|Tathra New South Wales AUSTRALIA
153,2020-04-27,Off Dawesville Cut Western Australia AUSTRALIA,Off Dawesville Cut,Western Australia,AUSTRALIA,-32.607019199999996,115.63976670000001,1587913200,2020-04-26T15:00:00+00:00,MSL,-0.43359607696533203,0.4594403076171875,2020-04-27|Off Dawesville Cut Western Australia AUSTRALIA
154,2020-04-27,Winkipop Beach Victoria AUSTRALIA,Winkipop Beach,Victoria,AUSTRALIA,-38.3680831,144.28495519999998,1587913200,2020-04-26T15:00:00+00:00,MSL,-1.4305735778808595,1.2872817993164063,2020-04-27|Winkipop Beach Victoria AUSTRALIA
155,2020-04-27,Goldsmith Beach Yorke Peninsula South Australia AUSTRALIA,Goldsmith Beach,South Australia,AUSTRALIA,-35.15153370000001,137.68547780000003,1587913200,2020-04-26T15:00:00+00:00,MSL,-0.870048828125,1.0813949584960938,2020-04-27|Goldsmith Beach Yorke Peninsula South Australia AUSTRALIA
156,2020-04-27,Umina Beach New South Wales AUSTRALIA,Umina Beach,New South Wales,AUSTRALIA,-33.528746000000005,151.307503,1587913200,2020-04-26T15:00:00+00:00,MSL,-0.8662629699707032,1.0545095825195312,2020-04-27|Umina Beach New South Wales AUSTRALIA
157,2020-04-27,Shelly Beach near Port Macquarie New South Wales AUSTRALIA,Shelly Beach,New South Wales,AUSTRALIA,-31.454032399999996,152.93144080000002,1587913200,2020-04-26T15:00:00+00:00,MSL,-0.8706361389160157,1.1227922058105468,2020-04-27|Shelly Beach near Port Macquarie New South Wales AUSTRALIA
158,2020-04-27,Riecks Point Campbell’s Beach New South Wales AUSTRALIA,Riecks Point,New South Wales,AUSTRALIA,-30.2379185,153.15217619999999,1587913200,2020-04-26T15:00:00+00:00,MSL,-0.8831208801269531,1.1386772918701171,2020-04-27|Riecks Point Campbell’s Beach New South Wales AUSTRALIA
159,2020-04-27,Trigg Beach Perth Western Australia AUSTRALIA,Trigg Beach,Western Australia,AUSTRALIA,-31.8779189,115.7517755,1587913200,2020-04-26T15:00:00+00:00,MSL,-0.4369647216796875,0.4655389404296875,2020-04-27|Trigg Beach Perth Western Australia AUSTRALIA
160,2020-04-27,Turquoise Bay Western Australia AUSTRALIA,Turquoise Bay,Western Australia,AUSTRALIA,-22.0963889,113.88944440000002,1587913200,2020-04-26T15:00:00+00:00,MSL,-0.8253414916992188,0.8297767639160156,2020-04-27|Turquoise Bay Western Australia AUSTRALIA
161,2020-04-27,Little Island near Hillarys Western Australia AUSTRALIA,Little Island,Western Australia,AUSTRALIA,-31.8123368,115.70911540000002,1587913200,2020-04-26T15:00:00+00:00,MSL,-0.43754703521728516,0.465466194152832,2020-04-27|Little Island near Hillarys Western Australia AUSTRALIA
162,2020-04-27,South Narrabeen Beach New South Wales AUSTRALIA,South Narrabeen Beach,New South Wales,AUSTRALIA,-33.709542299999995,151.3033826,1587913200,2020-04-26T15:00:00+00:00,MSL,-0.8651046752929688,1.0526553344726564,2020-04-27|South Narrabeen Beach New South Wales AUSTRALIA
163,2020-04-27,Off Poison Creek Cape Arid Western Australia AUSTRALIA,Off Poison Creek,Western Australia,AUSTRALIA,-33.9036415,123.35127050000001,1587913200,2020-04-26T15:00:00+00:00,MSL,-0.49901866912841797,0.6659471130371094,2020-04-27|Off Poison Creek Cape Arid Western Australia AUSTRALIA
164,2020-04-27,Smiths New South Wales AUSTRALIA,Smiths,New South Wales,AUSTRALIA,-31.2532183,146.921099,1587913200,2020-04-26T15:00:00+00:00,MSL,-0.8662629699707032,1.0545095825195312,2020-04-27|Smiths New South Wales AUSTRALIA
165,2020-04-27,Target Beach New South Wales AUSTRALIA,Target Beach,New South Wales,AUSTRALIA,-35.0712278,150.78299619999999,1587913200,2020-04-26T15:00:00+00:00,MSL,-0.8486609649658203,1.0114490509033203,2020-04-27|Target Beach New South Wales AUSTRALIA
166,2020-04-27,Emerald Beach New South Wales AUSTRALIA,Emerald Beach,New South Wales,AUSTRALIA,-30.1574794,153.1501948,1587913200,2020-04-26T15:00:00+00:00,MSL,-0.8831946563720703,1.138968505859375,2020-04-27|Emerald Beach New South Wales AUSTRALIA
167,2020-04-27,Crowdy Head New South Wales AUSTRALIA,Crowdy Head,New South Wales,AUSTRALIA,-31.844324100000005,152.72650990000002,1587913200,2020-04-26T15:00:00+00:00,MSL,-0.873302001953125,1.1177643585205077,2020-04-27|Crowdy Head New South Wales AUSTRALIA
168,2020-04-27,Perth Western Australia AUSTRALIA,Perth,Western Australia,AUSTRALIA,-31.950526899999996,115.8604572,1587913200,2020-04-26T15:00:00+00:00,MSL,-0.43631591796875,0.46526737213134767,2020-04-27|Perth Western Australia AUSTRALIA
169,2020-04-27,Terrigal Beach New South Wales AUSTRALIA,Terrigal Beach,New South Wales,AUSTRALIA,-33.4461804,151.4447377,1587913200,2020-04-26T15:00:00+00:00,MSL,-0.8683502197265625,1.0624525451660156,2020-04-27|Terrigal Beach New South Wales AUSTRALIA
170,2020-04-27,African Reef off Geraldton Western Australia AUSTRALIA,African Reef off Geraldton,Western Australia,AUSTRALIA,-28.802443,114.61852209999999,1587913200,2020-04-26T15:00:00+00:00,MSL,-0.47689582824707033,0.4987537384033203,2020-04-27|African Reef off Geraldton Western Australia AUSTRALIA
171,2020-04-27,Cape Nelson Victoria AUSTRALIA,Cape Nelson,Victoria,AUSTRALIA,-38.384739399999994,141.565049,1587913200,2020-04-26T15:00:00+00:00,MSL,-0.5818222045898438,0.5959942626953125,2020-04-27|Cape Nelson Victoria AUSTRALIA
172,2020-04-27,Noosa Queensland AUSTRALIA,Noosa,Queensland,AUSTRALIA,-26.3645433,152.9676695,1587913200,2020-04-26T15:00:00+00:00,MSL,-0.9437657165527343,1.2187022399902343,2020-04-27|Noosa Queensland AUSTRALIA
173,2020-04-27,Bullcock Beach Queensland AUSTRALIA,Bullcock Beach,Queensland,AUSTRALIA,-26.806945199999998,153.131696,1587913200,2020-04-26T15:00:00+00:00,MSL,-0.9471244049072266,1.2240269470214844,2020-04-27|Bullcock Beach Queensland AUSTRALIA
174,2020-04-27,Near Legendre Island Western Australia AUSTRALIA,Near Legendre Island,Western Australia,AUSTRALIA,-20.3853568,116.87631040000001,1587913200,2020-04-26T15:00:00+00:00,MSL,-2.3842848205566405,2.355214080810547,2020-04-27|Near Legendre Island Western Australia AUSTRALIA
175,2020-04-27,Between Dee Why and Long Reef New South Wales AUSTRALIA,Between Dee Why and Long Reef,New South Wales,AUSTRALIA,-33.746083399999996,151.30407160000001,1587913200,2020-04-26T15:00:00+00:00,MSL,-0.8621099853515625,1.0487445831298827,2020-04-27|Between Dee Why and Long Reef New South Wales AUSTRALIA
176,2020-04-27,Kylies Beach Diamond Head New South Wales AUSTRALIA,Kylie's Beach,New South Wales,AUSTRALIA,-31.735303100000003,152.7916418,1587913200,2020-04-26T15:00:00+00:00,MSL,-0.872219467163086,1.1172157287597657,2020-04-27|Kylies Beach Diamond Head New South Wales AUSTRALIA
177,2020-04-27,Green Island New South Wales AUSTRALIA,Green Island,New South Wales,AUSTRALIA,-35.2721138,150.5160592,1587913200,2020-04-26T15:00:00+00:00,MSL,-0.8454113006591797,1.0022213745117188,2020-04-27|Green Island New South Wales AUSTRALIA
178,2020-04-27,Mooloolaba Queensland AUSTRALIA,Mooloolaba,Queensland,AUSTRALIA,-26.682,153.118,1587913200,2020-04-26T15:00:00+00:00,MSL,-0.941897201538086,1.2162120056152343,2020-04-27|Mooloolaba Queensland AUSTRALIA
179,2020-04-27,Mullaloo Beach Perth Western Australia AUSTRALIA,Mullaloo Beach,Western Australia,AUSTRALIA,-31.7789355,115.7325558,1587913200,2020-04-26T15:00:00+00:00,MSL,-0.4383910369873047,0.4657600784301758,2020-04-27|Mullaloo Beach Perth Western Australia AUSTRALIA
180,2020-04-27,Red Bluff near Quobba Station Western Australia AUSTRALIA,Red Bluff near Quobba Station,Western Australia,AUSTRALIA,-24.05,113.4,1587913200,2020-04-26T15:00:00+00:00,MSL,-0.7426454925537109,0.7374787902832032,2020-04-27|Red Bluff near Quobba Station Western Australia AUSTRALIA
181,2020-04-27,Ocean Reef Western Australia AUSTRALIA,Ocean Reef,Western Australia,AUSTRALIA,-31.760051699999998,115.73328070000001,1587913200,2020-04-26T15:00:00+00:00,MSL,-0.4383910369873047,0.4657600784301758,2020-04-27|Ocean Reef Western Australia AUSTRALIA
182,2020-04-27,Streaky Bay South Australia AUSTRALIA,Streaky Bay,South Australia,AUSTRALIA,-32.797222,134.21111100000002,1587913200,2020-04-26T15:00:00+00:00,MSL,-0.7627053833007813,1.0098590087890624,2020-04-27|Streaky Bay South Australia AUSTRALIA
183,2020-04-27,Off Wedge Island Western Australia AUSTRALIA,Off Wedge Island,Western Australia,AUSTRALIA,-30.8277891,115.1879896,1587913200,2020-04-26T15:00:00+00:00,MSL,-0.4381489944458008,0.46111953735351563,2020-04-27|Off Wedge Island Western Australia AUSTRALIA
184,2020-04-27,Ships Graveyard off Point Lonsdale Victoria AUSTRALIA,Ship's Graveyard off Point Lonsdale,Victoria,AUSTRALIA,-38.283333,144.6,1587913200,2020-04-26T15:00:00+00:00,MSL,-1.4889448547363282,1.3381590270996093,2020-04-27|Ships Graveyard off Point Lonsdale Victoria AUSTRALIA
185,2020-04-27,South Cape Bay Tasmania AUSTRALIA,South Cape Bay,Tasmania,AUSTRALIA,-43.63,146.79,1587913200,2020-04-26T15:00:00+00:00,MSL,-0.6317258071899414,0.5426812362670899,2020-04-27|South Cape Bay Tasmania AUSTRALIA
186,2020-04-27,Port Campbell Victoria AUSTRALIA,Port Campbell,Victoria,AUSTRALIA,-38.6191008,142.9961352,1587913200,2020-04-26T15:00:00+00:00,MSL,-0.6942464447021485,0.6148826599121093,2020-04-27|Port Campbell Victoria AUSTRALIA
187,2020-04-27,Redhead Beach Newcastle New South Wales AUSTRALIA,Redhead Beach,New South Wales,AUSTRALIA,-33.0204805,151.70915119999998,1587913200,2020-04-26T15:00:00+00:00,MSL,-0.8728636169433593,1.0772764587402344,2020-04-27|Redhead Beach Newcastle New South Wales AUSTRALIA
188,2020-04-27,Dolphin Bay Innes National Park South Australia AUSTRALIA,Dolphin Bay,South Australia,AUSTRALIA,-35.2367081,136.897156,1587913200,2020-04-26T15:00:00+00:00,MSL,-0.49566455841064455,0.6933939361572266,2020-04-27|Dolphin Bay Innes National Park South Australia AUSTRALIA
189,2020-04-27,Stratham Beach Western Australia AUSTRALIA,Stratham Beach,Western Australia,AUSTRALIA,-33.4665674,115.5602443,1587913200,2020-04-26T15:00:00+00:00,MSL,-0.48529083251953126,0.4962222671508789,2020-04-27|Stratham Beach Western Australia AUSTRALIA
190,2020-04-27,Kalbarri Western Australia AUSTRALIA,Kalbarri,Western Australia,AUSTRALIA,-27.710419199999997,114.1646201,1587913200,2020-04-26T15:00:00+00:00,MSL,-0.4932524490356445,0.519564094543457,2020-04-27|Kalbarri Western Australia AUSTRALIA
191,2020-04-27,Nobbys Beach Queensland AUSTRALIA,Nobby's Beach,Queensland,AUSTRALIA,-28.0534335,153.4410418,1587913200,2020-04-26T15:00:00+00:00,MSL,-0.8965574645996094,1.1849622344970703,2020-04-27|Nobbys Beach Queensland AUSTRALIA
192,2020-04-27,Shipwreck Cove Melbourne Aquarium Victoria AUSTRALIA,Shipwreck Cove,Victoria,AUSTRALIA,-37.820629499999995,144.95821750000002,1587913200,2020-04-26T15:00:00+00:00,MSL,-0.6727967071533203,0.5962227249145508,2020-04-27|Shipwreck Cove Melbourne Aquarium Victoria AUSTRALIA
193,2020-04-27,Broughton Island New South Wales AUSTRALIA,Broughton Island,New South Wales,AUSTRALIA,-32.6157855,152.31398269999997,1587913200,2020-04-26T15:00:00+00:00,MSL,-0.8733307647705079,1.0862841796875,2020-04-27|Broughton Island New South Wales AUSTRALIA
194,2020-04-27,Wurtulla Queensland AUSTRALIA,Wurtulla,Queensland,AUSTRALIA,-26.756999999999998,153.126,1587913200,2020-04-26T15:00:00+00:00,MSL,-0.9431330871582031,1.2188253021240234,2020-04-27|Wurtulla Queensland AUSTRALIA
195,2020-04-27,Redhead Beach New South Wales AUSTRALIA,Redhead Beach,New South Wales,AUSTRALIA,-33.0204805,151.70915119999998,1587913200,2020-04-26T15:00:00+00:00,MSL,-0.8728636169433593,1.0772764587402344,2020-04-27|Redhead Beach New South Wales AUSTRALIA
196,2020-04-27,North Avoca Beach New South Wales AUSTRALIA,North Avoca Beach,New South Wales,AUSTRALIA,-33.4608015,151.4379276,1587913200,2020-04-26T15:00:00+00:00,MSL,-0.8683502197265625,1.0624525451660156,2020-04-27|North Avoca Beach New South Wales AUSTRALIA
197,2020-04-27,Duranbah Queensland AUSTRALIA,Duranbah,Queensland,AUSTRALIA,-28.316667,153.533333,1587913200,2020-04-26T15:00:00+00:00,MSL,-0.8889710235595704,1.1685575103759767,2020-04-27|Duranbah Queensland AUSTRALIA
198,2020-04-27,Angourie New South Wales AUSTRALIA,Angourie,New South Wales,AUSTRALIA,-29.479166999999997,153.359444,1587913200,2020-04-26T15:00:00+00:00,MSL,-0.8904793548583985,1.1617720794677735,2020-04-27|Angourie New South Wales AUSTRALIA
199,2020-04-27,Maroubra New South Wales AUSTRALIA,Maroubra,New South Wales,AUSTRALIA,-33.9495,151.2437,1587913200,2020-04-26T15:00:00+00:00,MSL,-0.8606995391845703,1.0447637939453125,2020-04-27|Maroubra New South Wales AUSTRALIA
200,2020-04-27,Bushy Ilet Queensland AUSTRALIA,Bushy Ilet,Queensland,AUSTRALIA,-20.9539613,150.0725668,1587913200,2020-04-26T15:00:00+00:00,MSL,-2.573270568847656,3.0052655029296873,2020-04-27|Bushy Ilet Queensland AUSTRALIA
201,2020-04-27,Broken Head New South Wales AUSTRALIA,Broken Head,New South Wales,AUSTRALIA,-28.7264578,153.5983166,1587913200,2020-04-26T15:00:00+00:00,MSL,-0.8881761169433594,1.1683778381347656,2020-04-27|Broken Head New South Wales AUSTRALIA
202,2020-04-27,Peregian Queensland AUSTRALIA,Peregian,Queensland,AUSTRALIA,-26.480556,153.09555600000002,1587913200,2020-04-26T15:00:00+00:00,MSL,-0.9415087890625,1.2157884979248046,2020-04-27|Peregian Queensland AUSTRALIA
203,2020-04-27,Elwood Beach Victoria AUSTRALIA,Elwood Beach,Victoria,AUSTRALIA,-37.890226500000004,144.9845562,1587913200,2020-04-26T15:00:00+00:00,MSL,-0.6727967071533203,0.5962227249145508,2020-04-27|Elwood Beach Victoria AUSTRALIA
204,2020-04-27,Cottesloe Beach Western Australia AUSTRALIA,Cottesloe Beach,Western Australia,AUSTRALIA,-31.9938622,115.7510477,1587913200,2020-04-26T15:00:00+00:00,MSL,-0.435899543762207,0.46491676330566406,2020-04-27|Cottesloe Beach Western Australia AUSTRALIA
205,2020-04-27,Bunker Bay Western Australia AUSTRALIA,Bunker Bay,Western Australia,AUSTRALIA,-33.5426804,115.0391851,1587913200,2020-04-26T15:00:00+00:00,MSL,-0.487705192565918,0.49474563598632815,2020-04-27|Bunker Bay Western Australia AUSTRALIA
206,2020-04-27,Fantome Island Queensland AUSTRALIA,Fantome Island,Queensland,AUSTRALIA,-18.6932861,146.5196111,1587913200,2020-04-26T15:00:00+00:00,MSL,-1.8044876098632812,1.9044821166992187,2020-04-27|Fantome Island Queensland AUSTRALIA
207,2020-04-27,Red Bluffs Western Australia AUSTRALIA,Red Bluffs,Western Australia,AUSTRALIA,-18.8,126.46666670000002,1587913200,2020-04-26T15:00:00+00:00,MSL,-5.515559692382812,6.591165771484375,2020-04-27|Red Bluffs Western Australia AUSTRALIA
208,2020-04-27,Jimmys Beach Port Stephens New South Wales AUSTRALIA,Jimmys Beach,New South Wales,AUSTRALIA,-32.6790132,152.1762756,1587913200,2020-04-26T15:00:00+00:00,MSL,-0.8727862548828125,1.0824812316894532,2020-04-27|Jimmys Beach Port Stephens New South Wales AUSTRALIA
209,2020-04-27,Tallow Beach Byron Bay New South Wales AUSTRALIA,Tallow Beach,New South Wales,AUSTRALIA,-28.6524251,153.62793369999997,1587913200,2020-04-26T15:00:00+00:00,MSL,-0.8891409301757812,1.1658721160888672,2020-04-27|Tallow Beach Byron Bay New South Wales AUSTRALIA
210,2020-04-27,Between Queensland AUSTRALIA,Between,Queensland,AUSTRALIA,-20.9175738,142.7027956,1587913200,2020-04-26T15:00:00+00:00,MSL,-2.096474304199219,2.3064971923828126,2020-04-27|Between Queensland AUSTRALIA
211,2020-04-27,Off Perforated Island near Coffin Bay South Australia AUSTRALIA,Off Perforated Island near Coffin Bay,South Australia,AUSTRALIA,-34.726845000000004,135.15822240000003,1587913200,2020-04-26T15:00:00+00:00,MSL,-0.520358772277832,0.7016387176513672,2020-04-27|Off Perforated Island near Coffin Bay South Australia AUSTRALIA
212,2020-04-27,Sunshine Beach Queensland AUSTRALIA,Sunshine Beach,Queensland,AUSTRALIA,-26.406999999999996,153.105,1587913200,2020-04-26T15:00:00+00:00,MSL,-0.942259292602539,1.2168733978271484,2020-04-27|Sunshine Beach Queensland AUSTRALIA
213,2020-04-27,Cudgen Creek New South Wales AUSTRALIA,Cudgen Creek,New South Wales,AUSTRALIA,-28.2765787,153.5730286,1587913200,2020-04-26T15:00:00+00:00,MSL,-0.8898392486572265,1.171876449584961,2020-04-27|Cudgen Creek New South Wales AUSTRALIA
214,2020-04-27,Busselton Western Australia AUSTRALIA,Busselton,Western Australia,AUSTRALIA,-33.653158399999995,115.3454892,1587913200,2020-04-26T15:00:00+00:00,MSL,-0.4863142395019531,0.49798198699951174,2020-04-27|Busselton Western Australia AUSTRALIA
215,2020-04-27,Native Dog Beach Western Australia AUSTRALIA,Native Dog Beach,Western Australia,AUSTRALIA,-34.450121,119.35602220000001,1587913200,2020-04-26T15:00:00+00:00,MSL,-0.5021557998657227,0.60361572265625,2020-04-27|Native Dog Beach Western Australia AUSTRALIA
216,2020-04-27,Between Carnac and Garden Islands Western Australia AUSTRALIA,Between Carnac and Garden Islands,Western Australia,AUSTRALIA,-32.204325399999995,115.67762739999999,1587913200,2020-04-26T15:00:00+00:00,MSL,-0.4325211715698242,0.46157360076904297,2020-04-27|Between Carnac and Garden Islands Western Australia AUSTRALIA
217,2020-04-27,Off Garden Island Western Australia AUSTRALIA,Off Garden Island,Western Australia,AUSTRALIA,-32.204325399999995,115.67762739999999,1587913200,2020-04-26T15:00:00+00:00,MSL,-0.4325211715698242,0.46157360076904297,2020-04-27|Off Garden Island Western Australia AUSTRALIA
218,2020-04-27,Cheynes Beach Western Australia AUSTRALIA,Cheynes Beach,Western Australia,AUSTRALIA,-34.88414,118.404629,1587913200,2020-04-26T15:00:00+00:00,MSL,-0.5060839080810546,0.5930007171630859,2020-04-27|Cheynes Beach Western Australia AUSTRALIA
219,2020-04-27,Wedge Island Western Australia AUSTRALIA,Wedge Island,Western Australia,AUSTRALIA,-30.8277891,115.1879896,1587913200,2020-04-26T15:00:00+00:00,MSL,-0.4381489944458008,0.46111953735351563,2020-04-27|Wedge Island Western Australia AUSTRALIA
220,2020-04-27,Mullaway Headland New South Wales AUSTRALIA,Mullaway Headland,New South Wales,AUSTRALIA,-30.080607300000004,153.19585039999998,1587913200,2020-04-26T15:00:00+00:00,MSL,-0.8833928680419922,1.141236572265625,2020-04-27|Mullaway Headland New South Wales AUSTRALIA
221,2020-04-27,Frasers Reef New South Wales AUSTRALIA,Fraser's Reef,New South Wales,AUSTRALIA,-31.2532183,146.921099,1587913200,2020-04-26T15:00:00+00:00,MSL,-0.8662629699707032,1.0545095825195312,2020-04-27|Frasers Reef New South Wales AUSTRALIA
222,2020-04-27,Cowaramup Bay Western Australia AUSTRALIA,Cowaramup Bay,Western Australia,AUSTRALIA,-33.8606025,114.9857991,1587913200,2020-04-26T15:00:00+00:00,MSL,-0.4978323745727539,0.5088227462768554,2020-04-27|Cowaramup Bay Western Australia AUSTRALIA
223,2020-04-27,Three Mile Creek Townsville Queensland AUSTRALIA,Three Mile Creek,Queensland,AUSTRALIA,-19.208941,146.76842230000003,1587913200,2020-04-26T15:00:00+00:00,MSL,-1.8213923645019532,1.926923828125,2020-04-27|Three Mile Creek Townsville Queensland AUSTRALIA
224,2020-04-27,Crescent Head New South Wales AUSTRALIA,Crescent Head,New South Wales,AUSTRALIA,-31.1861501,152.9132368,1587913200,2020-04-26T15:00:00+00:00,MSL,-0.8722132110595703,1.1230684661865233,2020-04-27|Crescent Head New South Wales AUSTRALIA
225,2020-04-27,Conspicuous Beach near Walpole Western Australia AUSTRALIA,Conspicuous Beach,Western Australia,AUSTRALIA,-35.0169764,116.861579,1587913200,2020-04-26T15:00:00+00:00,MSL,-0.4962996673583984,0.5372630310058594,2020-04-27|Conspicuous Beach near Walpole Western Australia AUSTRALIA
226,2020-04-27,Point Plomer New South Wales AUSTRALIA,Point Plomer,New South Wales,AUSTRALIA,-31.315232,152.97704109999998,1587913200,2020-04-26T15:00:00+00:00,MSL,-0.8715775299072266,1.1220252227783203,2020-04-27|Point Plomer New South Wales AUSTRALIA
227,2020-04-27,Dent Island Whitsundays Queensland AUSTRALIA,Dent Island,Queensland,AUSTRALIA,-20.3496288,148.93201430000002,1587913200,2020-04-26T15:00:00+00:00,MSL,-2.0532640075683593,2.549216613769531,2020-04-27|Dent Island Whitsundays Queensland AUSTRALIA
228,2020-04-27,Mona Vale Beach Sydney New South Wales AUSTRALIA,Mona Vale Beach,New South Wales,AUSTRALIA,-33.6795811,151.31354850000002,1587913200,2020-04-26T15:00:00+00:00,MSL,-0.8651046752929688,1.0526553344726564,2020-04-27|Mona Vale Beach Sydney New South Wales AUSTRALIA
229,2020-04-27,Turners Beach New South Wales AUSTRALIA,Turners' Beach,New South Wales,AUSTRALIA,-29.4304387,153.3629052,1587913200,2020-04-26T15:00:00+00:00,MSL,-0.8917601013183594,1.165411376953125,2020-04-27|Turners Beach New South Wales AUSTRALIA
230,2020-04-27,Archies Beach Queensland AUSTRALIA,Archie's Beach,Queensland,AUSTRALIA,-20.9175738,142.7027956,1587913200,2020-04-26T15:00:00+00:00,MSL,-2.096474304199219,2.3064971923828126,2020-04-27|Archies Beach Queensland AUSTRALIA
231,2020-04-27,Geelong Victoria AUSTRALIA,Geelong,Victoria,AUSTRALIA,-38.1499181,144.3617186,1587913200,2020-04-26T15:00:00+00:00,MSL,-0.6876174926757812,0.6239764022827149,2020-04-27|Geelong Victoria AUSTRALIA
232,2020-04-27,Mudjimba Island Queensland AUSTRALIA,Mudjimba Island,Queensland,AUSTRALIA,-26.6146347,153.1144871,1587913200,2020-04-26T15:00:00+00:00,MSL,-0.9415785980224609,1.215576171875,2020-04-27|Mudjimba Island Queensland AUSTRALIA
233,2020-04-27,Lamont Reef Queensland AUSTRALIA,Lamont Reef,Queensland,AUSTRALIA,-23.6013947,152.0308565,1587913200,2020-04-26T15:00:00+00:00,MSL,-1.4111276245117188,1.72813232421875,2020-04-27|Lamont Reef Queensland AUSTRALIA
234,2020-04-27,Coffee Head New South Wales AUSTRALIA,Coffee Head,New South Wales,AUSTRALIA,-33.8594282,151.2777455,1587913200,2020-04-26T15:00:00+00:00,MSL,-0.8615251159667969,1.0466612243652345,2020-04-27|Coffee Head New South Wales AUSTRALIA
235,2020-04-27,Hawks Nest Beach New South Wales AUSTRALIA,Hawks Nest Beach,New South Wales,AUSTRALIA,-32.6742413,152.1858925,1587913200,2020-04-26T15:00:00+00:00,MSL,-0.8730908203125,1.0842546844482421,2020-04-27|Hawks Nest Beach New South Wales AUSTRALIA
236,2020-04-27,Second Valley South Australia AUSTRALIA,Second Valley,South Australia,AUSTRALIA,-35.5367772,138.2322002,1587913200,2020-04-26T15:00:00+00:00,MSL,-0.9045933532714844,1.1030945587158203,2020-04-27|Second Valley South Australia AUSTRALIA
237,2020-04-27,Portland Victoria AUSTRALIA,Portland,Victoria,AUSTRALIA,-38.360895,141.6041155,1587913200,2020-04-26T15:00:00+00:00,MSL,-0.5882035446166992,0.5955762481689453,2020-04-27|Portland Victoria AUSTRALIA
238,2020-04-27,Lennox Heads New South Wales AUSTRALIA,Lennox Heads,New South Wales,AUSTRALIA,-28.8,153.583333,1587913200,2020-04-26T15:00:00+00:00,MSL,-0.8868402099609375,1.1673131561279297,2020-04-27|Lennox Heads New South Wales AUSTRALIA
239,2020-04-27,Fingal Bay New South Wales AUSTRALIA,Fingal Bay,New South Wales,AUSTRALIA,-32.750155,152.16318700000002,1587913200,2020-04-26T15:00:00+00:00,MSL,-0.8727862548828125,1.0824812316894532,2020-04-27|Fingal Bay New South Wales AUSTRALIA
240,2020-04-27,Blue Bay New South Wales AUSTRALIA,Blue Bay,New South Wales,AUSTRALIA,-33.353,151.501,1587913200,2020-04-26T15:00:00+00:00,MSL,-0.8690522766113281,1.0650308227539063,2020-04-27|Blue Bay New South Wales AUSTRALIA
241,2020-04-27,South Broulee New South Wales AUSTRALIA,South Broulee,New South Wales,AUSTRALIA,-35.845428399999996,150.1694166,1587913200,2020-04-26T15:00:00+00:00,MSL,-0.8404852294921875,0.9893132019042968,2020-04-27|South Broulee New South Wales AUSTRALIA
242,2020-04-27,Batemans Bay New South Wales AUSTRALIA,Bateman's Bay,New South Wales,AUSTRALIA,-35.7143871,150.1794707,1587913200,2020-04-26T15:00:00+00:00,MSL,-0.8411076354980469,0.9921428680419921,2020-04-27|Batemans Bay New South Wales AUSTRALIA
243,2020-04-27,The Natural Jetty Rottnest Island Western Australia AUSTRALIA,The Natural Jetty,Western Australia,AUSTRALIA,-32.0063677,115.5073002,1587913200,2020-04-26T15:00:00+00:00,MSL,-0.43395423889160156,0.46272380828857423,2020-04-27|The Natural Jetty Rottnest Island Western Australia AUSTRALIA
244,2020-04-27,Avalon New South Wales AUSTRALIA,Avalon,New South Wales,AUSTRALIA,-33.6302836,151.3297698,1587913200,2020-04-26T15:00:00+00:00,MSL,-0.8662629699707032,1.0545095825195312,2020-04-27|Avalon New South Wales AUSTRALIA
245,2020-04-27,Batt Reef Queensland AUSTRALIA,Batt Reef,Queensland,AUSTRALIA,-16.415952800000003,145.7710071,1587913200,2020-04-26T15:00:00+00:00,MSL,-1.4930741882324219,1.5499710083007812,2020-04-27|Batt Reef Queensland AUSTRALIA
246,2020-04-27,Bondi Beach Sydney New South Wales AUSTRALIA,Bondi Beach,New South Wales,AUSTRALIA,-33.8914755,151.2766845,1587913200,2020-04-26T15:00:00+00:00,MSL,-0.8615251159667969,1.0466612243652345,2020-04-27|Bondi Beach Sydney New South Wales AUSTRALIA
247,2020-04-27,Garden Point Woolloomooloo Sydney Harbour New South Wales AUSTRALIA,Garden Point,New South Wales,AUSTRALIA,-33.8641859,151.2165708,1587913200,2020-04-26T15:00:00+00:00,MSL,-0.8615251159667969,1.0466612243652345,2020-04-27|Garden Point Woolloomooloo Sydney Harbour New South Wales AUSTRALIA
248,2020-04-27,Cellito Beach New South Wales AUSTRALIA,Cellito Beach,New South Wales,AUSTRALIA,-32.3789104,152.529459,1587913200,2020-04-26T15:00:00+00:00,MSL,-0.8732183837890625,1.0996175384521485,2020-04-27|Cellito Beach New South Wales AUSTRALIA
249,2020-04-27,Sandon New South Wales AUSTRALIA,Sandon,New South Wales,AUSTRALIA,-29.689362699999997,153.3130678,1587913200,2020-04-26T15:00:00+00:00,MSL,-0.8867608642578125,1.1520135498046875,2020-04-27|Sandon New South Wales AUSTRALIA
250,2020-04-27,Surf Beach Batemans Bay New South Wales AUSTRALIA,Surf Beach,New South Wales,AUSTRALIA,-35.7600051,150.2052861,1587913200,2020-04-26T15:00:00+00:00,MSL,-0.8411076354980469,0.9921428680419921,2020-04-27|Surf Beach Batemans Bay New South Wales AUSTRALIA
251,2020-04-27,Off Tower Hill Victoria AUSTRALIA,Off Tower Hill,Victoria,AUSTRALIA,-38.3332266,142.3537074,1587913200,2020-04-26T15:00:00+00:00,MSL,-0.6144263076782227,0.5846691131591797,2020-04-27|Off Tower Hill Victoria AUSTRALIA
252,2020-04-27,Windang Lake Illawara New South Wales AUSTRALIA,Windang,New South Wales,AUSTRALIA,-34.527370899999994,150.8740205,1587913200,2020-04-26T15:00:00+00:00,MSL,-0.8555808258056641,1.0318485260009767,2020-04-27|Windang Lake Illawara New South Wales AUSTRALIA
253,2020-04-27,Binalong Bay Tasmania AUSTRALIA,Binalong Bay,Tasmania,AUSTRALIA,-41.249126399999994,148.2928957,1587913200,2020-04-26T15:00:00+00:00,MSL,-0.7900019073486328,0.8286503601074219,2020-04-27|Binalong Bay Tasmania AUSTRALIA
254,2020-04-27,Fingal Beach New South Wales AUSTRALIA,Fingal Beach,New South Wales,AUSTRALIA,-28.2,153.5667,1587913200,2020-04-26T15:00:00+00:00,MSL,-0.8929218292236328,1.1779092407226563,2020-04-27|Fingal Beach New South Wales AUSTRALIA
255,2020-04-27,Port Kennedy Beach Western Australia AUSTRALIA,Port Kennedy Beach,Western Australia,AUSTRALIA,-32.3522464,115.7422946,1587913200,2020-04-26T15:00:00+00:00,MSL,-0.4327439880371094,0.4610045623779297,2020-04-27|Port Kennedy Beach Western Australia AUSTRALIA
256,2020-04-27,near Schouten Island Tasmania AUSTRALIA,near Schouten Island,Tasmania,AUSTRALIA,-42.317857000000004,148.281927,1587913200,2020-04-26T15:00:00+00:00,MSL,-0.7486802673339844,0.7179875946044922,2020-04-27|near Schouten Island Tasmania AUSTRALIA
257,2020-04-27,Seal Rocks New South Wales AUSTRALIA,Seal Rocks,New South Wales,AUSTRALIA,-32.4353409,152.525707,1587913200,2020-04-26T15:00:00+00:00,MSL,-0.872464370727539,1.0950189971923827,2020-04-27|Seal Rocks New South Wales AUSTRALIA
258,2020-04-27,Long Reef north of Sydney New South Wales AUSTRALIA,Long Reef,New South Wales,AUSTRALIA,-33.746083399999996,151.30407160000001,1587913200,2020-04-26T15:00:00+00:00,MSL,-0.8621099853515625,1.0487445831298827,2020-04-27|Long Reef north of Sydney New South Wales AUSTRALIA
259,2020-04-27,Mowarry Point New South Wales AUSTRALIA,Mowarry Point,New South Wales,AUSTRALIA,-37.1406048,150.0047629,1587913200,2020-04-26T15:00:00+00:00,MSL,-0.827169189453125,0.9762434387207031,2020-04-27|Mowarry Point New South Wales AUSTRALIA
260,2020-04-27,North Haven South Australia AUSTRALIA,North Haven,South Australia,AUSTRALIA,-34.7864711,138.49372130000003,1587913200,2020-04-26T15:00:00+00:00,MSL,-1.3121221923828126,1.5130508422851563,2020-04-27|North Haven South Australia AUSTRALIA
261,2020-04-27,Oceanworld Manley New South Wales AUSTRALIA,Oceanworld,New South Wales,AUSTRALIA,-33.795355,151.285014,1587913200,2020-04-26T15:00:00+00:00,MSL,-0.8621099853515625,1.0487445831298827,2020-04-27|Oceanworld Manley New South Wales AUSTRALIA
262,2020-04-27,Clarks Beach Byron Bay New South Wales AUSTRALIA,Clarks Beach,New South Wales,AUSTRALIA,-28.6396907,153.6272755,1587913200,2020-04-26T15:00:00+00:00,MSL,-0.8891409301757812,1.1658721160888672,2020-04-27|Clarks Beach Byron Bay New South Wales AUSTRALIA
263,2020-04-27,Levys Beach Victoria AUSTRALIA,Levys Beach,Victoria,AUSTRALIA,-37.471307700000004,144.7851531,1587913200,2020-04-26T15:00:00+00:00,MSL,-0.6694382476806641,0.5948576736450195,2020-04-27|Levys Beach Victoria AUSTRALIA
264,2020-04-27,Albany Western Australia AUSTRALIA,Albany,Western Australia,AUSTRALIA,-35.0269344,117.8837206,1587913200,2020-04-26T15:00:00+00:00,MSL,-0.5100648880004883,0.5887093353271484,2020-04-27|Albany Western Australia AUSTRALIA
265,2020-04-27,Duranbah Greenmount Beach Queensland AUSTRALIA,Duranbah,Queensland,AUSTRALIA,-28.1675,153.55194440000002,1587913200,2020-04-26T15:00:00+00:00,MSL,-0.8929218292236328,1.1779092407226563,2020-04-27|Duranbah Greenmount Beach Queensland AUSTRALIA
266,2020-04-27,Horseshoe Bay New South Wales AUSTRALIA,Horseshoe Bay,New South Wales,AUSTRALIA,-36.4058391,150.075097,1587913200,2020-04-26T15:00:00+00:00,MSL,-0.833930892944336,0.9797919464111328,2020-04-27|Horseshoe Bay New South Wales AUSTRALIA
267,2020-04-27,200 km east of Coolangatta Queensland AUSTRALIA,200 km east of Coolangatta,Queensland,AUSTRALIA,-28.166666999999997,153.533333,1587913200,2020-04-26T15:00:00+00:00,MSL,-0.8929218292236328,1.1779092407226563,2020-04-27|200 km east of Coolangatta Queensland AUSTRALIA
268,2020-04-27,Jimmys Beach New South Wales AUSTRALIA,Jimmy's Beach,New South Wales,AUSTRALIA,-32.6790132,152.1762756,1587913200,2020-04-26T15:00:00+00:00,MSL,-0.8727862548828125,1.0824812316894532,2020-04-27|Jimmys Beach New South Wales AUSTRALIA
269,2020-04-27,South Stradbroke Island Queensland AUSTRALIA,South Stradbroke Island,Queensland,AUSTRALIA,-27.833508600000002,153.42132080000002,1587913200,2020-04-26T15:00:00+00:00,MSL,-0.8966831207275391,1.1896378326416015,2020-04-27|South Stradbroke Island Queensland AUSTRALIA
270,2020-04-27,Bondi New South Wales AUSTRALIA,Bondi,New South Wales,AUSTRALIA,-33.89195,151.26099,1587913200,2020-04-26T15:00:00+00:00,MSL,-0.8615251159667969,1.0466612243652345,2020-04-27|Bondi New South Wales AUSTRALIA
271,2020-04-27,In a tidal creek 5 km from Wickham Western Australia AUSTRALIA,In a tidal creek 5 km from Wickham,Western Australia,AUSTRALIA,-20.673199399999998,117.147269,1587913200,2020-04-26T15:00:00+00:00,MSL,-2.817133483886719,2.773287658691406,2020-04-27|In a tidal creek 5 km from Wickham Western Australia AUSTRALIA
272,2020-04-27,Byron Bay New South Wales AUSTRALIA,Byron Bay,New South Wales,AUSTRALIA,-28.647367100000004,153.601977,1587913200,2020-04-26T15:00:00+00:00,MSL,-0.8891409301757812,1.1658721160888672,2020-04-27|Byron Bay New South Wales AUSTRALIA
273,2020-04-27,Holmes Reef Queensland AUSTRALIA,Holmes Reef,Queensland,AUSTRALIA,-10.6005556,142.23138889999998,1587913200,2020-04-26T15:00:00+00:00,MSL,-1.7100787353515625,1.8629246520996094,2020-04-27|Holmes Reef Queensland AUSTRALIA
274,2020-04-27,Shelly Beach Crescent Head New South Wales AUSTRALIA,Shelly Beach,New South Wales,AUSTRALIA,-33.3699595,151.4858695,1587913200,2020-04-26T15:00:00+00:00,MSL,-0.8683502197265625,1.0624525451660156,2020-04-27|Shelly Beach Crescent Head New South Wales AUSTRALIA
275,2020-04-27,Warra Beach Coral Bay Western Australia AUSTRALIA,Warra Beach,Western Australia,AUSTRALIA,-23.1438889,113.7688889,1587913200,2020-04-26T15:00:00+00:00,MSL,-0.7716323089599609,0.7754791259765625,2020-04-27|Warra Beach Coral Bay Western Australia AUSTRALIA
276,2020-04-27,Warrnambool Victoria AUSTRALIA,Warrnambool,Victoria,AUSTRALIA,-38.3686779,142.4982086,1587913200,2020-04-26T15:00:00+00:00,MSL,-0.6202348709106446,0.5843559646606445,2020-04-27|Warrnambool Victoria AUSTRALIA
277,2020-04-27,Kingscliff Beach New South Wales AUSTRALIA,Kingscliff Beach,New South Wales,AUSTRALIA,-28.251915000000004,153.574525,1587913200,2020-04-26T15:00:00+00:00,MSL,-0.8898392486572265,1.171876449584961,2020-04-27|Kingscliff Beach New South Wales AUSTRALIA
278,2020-04-27,Mornington Island Gulf of Carpentaria Queensland AUSTRALIA,Mornington Island,Queensland,AUSTRALIA,-16.5174872,139.4059435,1587913200,2020-04-26T15:00:00+00:00,MSL,-1.7191497802734375,1.8301387023925781,2020-04-27|Mornington Island Gulf of Carpentaria Queensland AUSTRALIA
279,2020-04-27,South Golden Beach New South Wales AUSTRALIA,South Golden Beach,New South Wales,AUSTRALIA,-28.4981216,153.54709450000001,1587913200,2020-04-26T15:00:00+00:00,MSL,-0.8889581298828125,1.1653212738037109,2020-04-27|South Golden Beach New South Wales AUSTRALIA
280,2020-04-27,Moore Park north of Bundaberg Queensland AUSTRALIA,Moore Park,Queensland,AUSTRALIA,-24.850489899999996,152.3506485,1587913200,2020-04-26T15:00:00+00:00,MSL,-1.447738037109375,1.7263267517089844,2020-04-27|Moore Park north of Bundaberg Queensland AUSTRALIA
281,2020-04-27,Cape Howe New South Wales AUSTRALIA,Cape Howe,New South Wales,AUSTRALIA,-37.5021775,149.9781828,1587913200,2020-04-26T15:00:00+00:00,MSL,-0.8365538024902344,0.9591891479492187,2020-04-27|Cape Howe New South Wales AUSTRALIA
282,2020-04-27,Brunswick Heads New South Wales AUSTRALIA,Brunswick Heads,New South Wales,AUSTRALIA,-28.5557919,153.54363940000002,1587913200,2020-04-26T15:00:00+00:00,MSL,-0.8889581298828125,1.1653212738037109,2020-04-27|Brunswick Heads New South Wales AUSTRALIA
283,2020-04-27,Sandbar Beach New South Wales AUSTRALIA,Sandbar Beach,New South Wales,AUSTRALIA,-32.387195,152.5226878,1587913200,2020-04-26T15:00:00+00:00,MSL,-0.8732183837890625,1.0996175384521485,2020-04-27|Sandbar Beach New South Wales AUSTRALIA
284,2020-04-27,Winki Pop Bells Beach Victoria AUSTRALIA,Winki Pop,Victoria,AUSTRALIA,-38.3680831,144.28495519999998,1587913200,2020-04-26T15:00:00+00:00,MSL,-1.4305735778808595,1.2872817993164063,2020-04-27|Winki Pop Bells Beach Victoria AUSTRALIA
285,2020-04-27,Wharton Beach Western Australia AUSTRALIA,Wharton Beach,Western Australia,AUSTRALIA,-33.9385415,122.54341470000001,1587913200,2020-04-26T15:00:00+00:00,MSL,-0.5101063537597657,0.655581283569336,2020-04-27|Wharton Beach Western Australia AUSTRALIA
286,2020-04-27,Great Barrier Reef Queensland AUSTRALIA,Great Barrier Reef,Queensland,AUSTRALIA,-18.2870668,147.6991918,1587913200,2020-04-26T15:00:00+00:00,MSL,-1.4040843200683595,1.4838421630859375,2020-04-27|Great Barrier Reef Queensland AUSTRALIA
287,2020-04-27,Pennington Bay Kangaroo Island South Australia AUSTRALIA,Pennington Bay,South Australia,AUSTRALIA,-35.8479736,137.75086090000002,1587913200,2020-04-26T15:00:00+00:00,MSL,-0.5675564575195312,0.7531685638427734,2020-04-27|Pennington Bay Kangaroo Island South Australia AUSTRALIA
288,2020-04-27,Waitpinga South Australia AUSTRALIA,Waitpinga,South Australia,AUSTRALIA,-35.599651200000004,138.4955961,1587913200,2020-04-26T15:00:00+00:00,MSL,-0.549876937866211,0.7171044158935547,2020-04-27|Waitpinga South Australia AUSTRALIA
289,2020-04-27,Moffat Beach Caloundra Queensland AUSTRALIA,Moffat Beach,Queensland,AUSTRALIA,-26.791,153.139,1587913200,2020-04-26T15:00:00+00:00,MSL,-0.9471244049072266,1.2240269470214844,2020-04-27|Moffat Beach Caloundra Queensland AUSTRALIA
290,2020-04-27,Newcastle Beach New South Wales AUSTRALIA,Newcastle Beach,New South Wales,AUSTRALIA,-32.9310039,151.7857155,1587913200,2020-04-26T15:00:00+00:00,MSL,-0.8734986114501954,1.0784809112548828,2020-04-27|Newcastle Beach New South Wales AUSTRALIA
291,2020-04-27,Bondi Sydney New South Wales AUSTRALIA,Bondi,New South Wales,AUSTRALIA,-33.89195,151.26099,1587913200,2020-04-26T15:00:00+00:00,MSL,-0.8615251159667969,1.0466612243652345,2020-04-27|Bondi Sydney New South Wales AUSTRALIA
292,2020-04-27,Golden Beach Caloundra Queensland AUSTRALIA,Golden Beach,Queensland,AUSTRALIA,-26.799,153.13299999999998,1587913200,2020-04-26T15:00:00+00:00,MSL,-0.9471244049072266,1.2240269470214844,2020-04-27|Golden Beach Caloundra Queensland AUSTRALIA
293,2020-04-27,Point Vernon Hervey Bay Queensland AUSTRALIA,Point Vernon,Queensland,AUSTRALIA,-25.257124100000002,152.8176466,1587913200,2020-04-26T15:00:00+00:00,MSL,-1.7324461364746093,1.9905058288574218,2020-04-27|Point Vernon Hervey Bay Queensland AUSTRALIA
294,2020-04-27,Brighton Beach Adelaide South Australia AUSTRALIA,Brighton Beach,South Australia,AUSTRALIA,-35.0244116,138.51712980000002,1587913200,2020-04-26T15:00:00+00:00,MSL,-1.1855183410644532,1.3907000732421875,2020-04-27|Brighton Beach Adelaide South Australia AUSTRALIA
295,2020-04-27,Off City Beach Perth Western Australia AUSTRALIA,Off City Beach,Western Australia,AUSTRALIA,-31.9339651,115.76420859999999,1587913200,2020-04-26T15:00:00+00:00,MSL,-0.43631591796875,0.46526737213134767,2020-04-27|Off City Beach Perth Western Australia AUSTRALIA
296,2020-04-27,Amity Point North Stradbroke Island Queensland AUSTRALIA,Amity Point,Queensland,AUSTRALIA,-27.397250800000002,153.45375990000002,1587913200,2020-04-26T15:00:00+00:00,MSL,-1.3414436340332032,1.606509246826172,2020-04-27|Amity Point North Stradbroke Island Queensland AUSTRALIA
297,2020-04-27,St Crispin Reef Queensland AUSTRALIA,St. Crispin Reef,Queensland,AUSTRALIA,-16.1014387,145.83812460000001,1587913200,2020-04-26T15:00:00+00:00,MSL,-1.4315730285644532,1.4921688842773437,2020-04-27|St Crispin Reef Queensland AUSTRALIA
298,2020-04-27,Middle Beach 40 km north of Adelaide South Australia AUSTRALIA,Middle Beach,South Australia,AUSTRALIA,-34.5795185,138.4821124,1587913200,2020-04-26T15:00:00+00:00,MSL,-1.3927157592773438,1.5918521118164062,2020-04-27|Middle Beach 40 km north of Adelaide South Australia AUSTRALIA
299,2020-04-27,6 km off Collendina south of Melbourne Victoria AUSTRALIA,6 km off Collendina,Victoria,AUSTRALIA,-37.835,144.96,1587913200,2020-04-26T15:00:00+00:00,MSL,-0.6727967071533203,0.5962227249145508,2020-04-27|6 km off Collendina south of Melbourne Victoria AUSTRALIA
300,2020-04-27,Flinders Victoria AUSTRALIA,Flinders,Victoria,AUSTRALIA,-38.474000000000004,145.02200000000002,1587913200,2020-04-26T15:00:00+00:00,MSL,-1.540248565673828,1.4043951416015625,2020-04-27|Flinders Victoria AUSTRALIA
301,2020-04-27,Arakoons Little Bay New South Wales AUSTRALIA,Arakoon's Little Bay,New South Wales,AUSTRALIA,-33.980540000000005,151.24301,1587913200,2020-04-26T15:00:00+00:00,MSL,-0.8599078369140625,1.0429801177978515,2020-04-27|Arakoons Little Bay New South Wales AUSTRALIA
302,2020-04-27,Kangaroo Island South Australia AUSTRALIA,Kangaroo Island,South Australia,AUSTRALIA,-35.775242600000006,137.2142417,1587913200,2020-04-26T15:00:00+00:00,MSL,-0.4745694351196289,0.7141273498535157,2020-04-27|Kangaroo Island South Australia AUSTRALIA
303,2020-04-27,Scarborough Beach Perth Western Australia AUSTRALIA,Scarborough Beach,Western Australia,AUSTRALIA,-31.893518100000005,115.7548947,1587913200,2020-04-26T15:00:00+00:00,MSL,-0.4369647216796875,0.4655389404296875,2020-04-27|Scarborough Beach Perth Western Australia AUSTRALIA
304,2020-04-27,Park Beach Coffs Harbour New South Wales AUSTRALIA,Park Beach,New South Wales,AUSTRALIA,-30.289625899999997,153.11855480000003,1587913200,2020-04-26T15:00:00+00:00,MSL,-0.875968246459961,1.1318302154541016,2020-04-27|Park Beach Coffs Harbour New South Wales AUSTRALIA
305,2020-04-27,Fishery Bay Eyre Peninsula South Australia AUSTRALIA,Fishery Bay,South Australia,AUSTRALIA,-34.9141667,135.6861111,1587913200,2020-04-26T15:00:00+00:00,MSL,-0.5190165710449218,0.7080857849121094,2020-04-27|Fishery Bay Eyre Peninsula South Australia AUSTRALIA
306,2020-04-27,Glenelg South Australia AUSTRALIA,Glenelg,South Australia,AUSTRALIA,-34.982,138.516,1587913200,2020-04-26T15:00:00+00:00,MSL,-1.1855183410644532,1.3907000732421875,2020-04-27|Glenelg South Australia AUSTRALIA
307,2020-04-27,50 km east of Townsville Queensland AUSTRALIA,50 km east of Townsville,Queensland,AUSTRALIA,-19.2589635,146.8169483,1587913200,2020-04-26T15:00:00+00:00,MSL,-1.782685546875,1.8890960693359375,2020-04-27|50 km east of Townsville Queensland AUSTRALIA
308,2020-04-27,Bermagui New South Wales AUSTRALIA,Bermagui,New South Wales,AUSTRALIA,-36.4433701,150.061362,1587913200,2020-04-26T15:00:00+00:00,MSL,-0.8329440307617187,0.9778659820556641,2020-04-27|Bermagui New South Wales AUSTRALIA
309,2020-04-27,Crookhaven New South Wales AUSTRALIA,Crookhaven,New South Wales,AUSTRALIA,-34.9211517,150.7225905,1587913200,2020-04-26T15:00:00+00:00,MSL,-0.8516280364990234,1.0206987762451172,2020-04-27|Crookhaven New South Wales AUSTRALIA
310,2020-04-27,Bronte Beach New South Wales AUSTRALIA,Bronte Beach,New South Wales,AUSTRALIA,-33.90532,151.26068999999998,1587913200,2020-04-26T15:00:00+00:00,MSL,-0.8615251159667969,1.0466612243652345,2020-04-27|Bronte Beach New South Wales AUSTRALIA
311,2020-04-27,Wreck Point Abrolhos Islands Western Australia AUSTRALIA,Wreck Point,Western Australia,AUSTRALIA,-28.3001002,113.59516979999998,1587913200,2020-04-26T15:00:00+00:00,MSL,-0.4533800506591797,0.48281734466552734,2020-04-27|Wreck Point Abrolhos Islands Western Australia AUSTRALIA
312,2020-04-27,Brisbane River Queensland AUSTRALIA,Brisbane River,Queensland,AUSTRALIA,-26.895106800000004,152.318608,1587913200,2020-04-26T15:00:00+00:00,MSL,-0.941897201538086,1.2162120056152343,2020-04-27|Brisbane River Queensland AUSTRALIA
313,2020-04-27,Port Phillip Bay Victoria AUSTRALIA,Port Phillip Bay,Victoria,AUSTRALIA,-38.173206,144.8731219,1587913200,2020-04-26T15:00:00+00:00,MSL,-0.6526578521728515,0.5670961380004883,2020-04-27|Port Phillip Bay Victoria AUSTRALIA
314,2020-04-27,Blairgowrie Victoria AUSTRALIA,Blairgowrie,Victoria,AUSTRALIA,-38.36,144.769,1587913200,2020-04-26T15:00:00+00:00,MSL,-1.4798466491699218,1.3315963745117188,2020-04-27|Blairgowrie Victoria AUSTRALIA
315,2020-04-27,West Beach Adelaide South Australia AUSTRALIA,West Beach,South Australia,AUSTRALIA,-34.945278,138.50375,1587913200,2020-04-26T15:00:00+00:00,MSL,-1.1855183410644532,1.3907000732421875,2020-04-27|West Beach Adelaide South Australia AUSTRALIA
316,2020-04-27,Opal Reef Queensland AUSTRALIA,Opal Reef,Queensland,AUSTRALIA,-16.2104561,145.881327,1587913200,2020-04-26T15:00:00+00:00,MSL,-1.4089253234863282,1.4695628356933594,2020-04-27|Opal Reef Queensland AUSTRALIA
317,2020-04-27,Stockton Beach New South Wales AUSTRALIA,Stockton Beach,New South Wales,AUSTRALIA,-32.8054122,151.9608991,1587913200,2020-04-26T15:00:00+00:00,MSL,-0.8735684204101563,1.0794224548339844,2020-04-27|Stockton Beach New South Wales AUSTRALIA
318,2020-04-27,7 km off Trigg surf beach Perth Western Australia AUSTRALIA,7 km off Trigg surf beach,Western Australia,AUSTRALIA,-31.8744999,115.7531233,1587913200,2020-04-26T15:00:00+00:00,MSL,-0.4369647216796875,0.4655389404296875,2020-04-27|7 km off Trigg surf beach Perth Western Australia AUSTRALIA
319,2020-04-27,Lefthanders Beach Margaret River Western Australia AUSTRALIA,Lefthanders Beach,Western Australia,AUSTRALIA,-33.8752851,114.98611319999999,1587913200,2020-04-26T15:00:00+00:00,MSL,-0.4978323745727539,0.5088227462768554,2020-04-27|Lefthanders Beach Margaret River Western Australia AUSTRALIA
320,2020-04-27,Latitude Reef near Forster New South Wales AUSTRALIA,Latitude Reef,New South Wales,AUSTRALIA,-32.180556,152.511667,1587913200,2020-04-26T15:00:00+00:00,MSL,-0.8735292816162109,1.1116001892089844,2020-04-27|Latitude Reef near Forster New South Wales AUSTRALIA
321,2020-04-27,5 nm off Cervantes Western Australia AUSTRALIA,5 nm off Cervantes,Western Australia,AUSTRALIA,34.5199402,-105.87009009999998,1587913200,2020-04-26T15:00:00+00:00,MSL,-3.4584860229492187,3.4763803100585937,2020-04-27|5 nm off Cervantes Western Australia AUSTRALIA
322,2020-04-27,Taree Old Bar Beach New South Wales AUSTRALIA,Taree,New South Wales,AUSTRALIA,-31.966666999999998,152.583333,1587913200,2020-04-26T15:00:00+00:00,MSL,-0.8756861114501953,1.1142408752441406,2020-04-27|Taree Old Bar Beach New South Wales AUSTRALIA
323,2020-04-27,Fidos Reef 300 m east of Cook Island Cook Island is 2 miles from Tweed Heads Gold Coast Queensland AUSTRALIA,Fido's Reef,Queensland,AUSTRALIA,-28.178665600000002,153.5370011,1587913200,2020-04-26T15:00:00+00:00,MSL,-0.8929218292236328,1.1779092407226563,2020-04-27|Fidos Reef 300 m east of Cook Island Cook Island is 2 miles from Tweed Heads Gold Coast Queensland AUSTRALIA
324,2020-04-27,Caves Beach New South Wales AUSTRALIA,Caves Beach,New South Wales,AUSTRALIA,-33.1063425,151.6450391,1587913200,2020-04-26T15:00:00+00:00,MSL,-0.8721678924560546,1.0741928100585938,2020-04-27|Caves Beach New South Wales AUSTRALIA
325,2020-04-27,Binningup Western Australia AUSTRALIA,Binningup,Western Australia,AUSTRALIA,-33.135769399999994,115.72061599999999,1587913200,2020-04-26T15:00:00+00:00,MSL,-0.4746941375732422,0.4866054916381836,2020-04-27|Binningup Western Australia AUSTRALIA
326,2020-04-27,Bushrangers Pass at Bass Point New South Wales AUSTRALIA,Bushrangers Pass at Bass Point,New South Wales,AUSTRALIA,-34.5973075,150.8997956,1587913200,2020-04-26T15:00:00+00:00,MSL,-0.854715576171875,1.0285357666015624,2020-04-27|Bushrangers Pass at Bass Point New South Wales AUSTRALIA
327,2020-04-27,Redgate Beach Western Australia AUSTRALIA,Redgate Beach,Western Australia,AUSTRALIA,-34.039174700000004,114.99853700000001,1587913200,2020-04-26T15:00:00+00:00,MSL,-0.5119460296630859,0.5213988876342773,2020-04-27|Redgate Beach Western Australia AUSTRALIA
328,2020-04-27,Collendina Beach east of Ocean Grove Victoria AUSTRALIA,Collendina Beach east of Ocean Grove,Victoria,AUSTRALIA,-38.271434,144.55914099999998,1587913200,2020-04-26T15:00:00+00:00,MSL,-1.4748703002929688,1.3302980041503907,2020-04-27|Collendina Beach east of Ocean Grove Victoria AUSTRALIA
329,2020-04-27,Perth? Margaret River District Western Australia AUSTRALIA,Perth? (Margaret River District),Western Australia,AUSTRALIA,-33.9610465,115.0767388,1587913200,2020-04-26T15:00:00+00:00,MSL,-0.5069694137573242,0.5164125823974609,2020-04-27|Perth? Margaret River District Western Australia AUSTRALIA
330,2020-04-27,Seal Rocks north of Newcastle New South Wales AUSTRALIA,Seal Rocks,New South Wales,AUSTRALIA,-32.4353409,152.525707,1587913200,2020-04-26T15:00:00+00:00,MSL,-0.872464370727539,1.0950189971923827,2020-04-27|Seal Rocks north of Newcastle New South Wales AUSTRALIA
331,2020-04-27,Lighthouse Beach Seal Rocks New South Wales AUSTRALIA,Lighthouse Beach,New South Wales,AUSTRALIA,-32.4436471,152.52793569999997,1587913200,2020-04-26T15:00:00+00:00,MSL,-0.872464370727539,1.0950189971923827,2020-04-27|Lighthouse Beach Seal Rocks New South Wales AUSTRALIA
332,2020-04-27,Goolwa Beach Fleurieu Peninsula South Australia AUSTRALIA,Goolwa Beach,South Australia,AUSTRALIA,-35.5,138.5,1587913200,2020-04-26T15:00:00+00:00,MSL,-0.549876937866211,0.7171044158935547,2020-04-27|Goolwa Beach Fleurieu Peninsula South Australia AUSTRALIA
333,2020-04-27,Coogee Bay near Sydney New South Wales AUSTRALIA,Coogee Bay,New South Wales,AUSTRALIA,-33.9197737,151.249673,1587913200,2020-04-26T15:00:00+00:00,MSL,-0.8606995391845703,1.0447637939453125,2020-04-27|Coogee Bay near Sydney New South Wales AUSTRALIA
334,2020-04-27,Burleigh Lake on the Gold Coast Queensland AUSTRALIA,Burleigh Lake on the Gold Coast,Queensland,AUSTRALIA,-28.087777799999998,153.4408333,1587913200,2020-04-26T15:00:00+00:00,MSL,-0.8965574645996094,1.1849622344970703,2020-04-27|Burleigh Lake on the Gold Coast Queensland AUSTRALIA
335,2020-04-27,Left break at the ‘Hot Spot’ at Sheringa Beach Western Australia AUSTRALIA,Left break at the ‘Hot Spot’ at Sheringa Beach,Western Australia,AUSTRALIA,-33.891765299999996,135.18893730000002,1587913200,2020-04-26T15:00:00+00:00,MSL,-0.5914170455932617,0.7930126190185547,2020-04-27|Left break at the ‘Hot Spot’ at Sheringa Beach Western Australia AUSTRALIA
336,2020-04-27,Great Barrier Reef near Upolu Bay Queensland AUSTRALIA,Great Barrier Reef (near Upolu Bay),Queensland,AUSTRALIA,-16.6722064,145.9334219,1587913200,2020-04-26T15:00:00+00:00,MSL,-1.4780116271972656,1.5365602111816405,2020-04-27|Great Barrier Reef near Upolu Bay Queensland AUSTRALIA
337,2020-04-27,Depth of 40 m on the wreck of the St Paul off Brisbane Queensland AUSTRALIA,Depth of 40 m on the wreck of the St. Paul off Brisbane,Queensland,AUSTRALIA,44.953702899999996,-93.0899578,1587913200,2020-04-26T15:00:00+00:00,MSL,-3.4746435546875,3.134934387207031,2020-04-27|Depth of 40 m on the wreck of the St Paul off Brisbane Queensland AUSTRALIA
338,2020-04-27,Golden Beach Queensland AUSTRALIA,Golden Beach,Queensland,AUSTRALIA,-26.823,153.118,1587913200,2020-04-26T15:00:00+00:00,MSL,-0.9471244049072266,1.2240269470214844,2020-04-27|Golden Beach Queensland AUSTRALIA
339,2020-04-27,Miami Lake Queensland AUSTRALIA,Miami Lake,Queensland,AUSTRALIA,-28.076944399999995,153.4366667,1587913200,2020-04-26T15:00:00+00:00,MSL,-0.8965574645996094,1.1849622344970703,2020-04-27|Miami Lake Queensland AUSTRALIA
340,2020-04-27,Smoky Bay near Ceduna on the Eyre Peninsula South Australia AUSTRALIA,Smoky Bay,South Australia,AUSTRALIA,-32.37340089999999,133.93568009999998,1587913200,2020-04-26T15:00:00+00:00,MSL,-0.7576908874511719,1.0119330596923828,2020-04-27|Smoky Bay near Ceduna on the Eyre Peninsula South Australia AUSTRALIA
341,2020-04-27,26 nautical miles out to sea off Lake Macquarie New South Wales AUSTRALIA,26 nautical miles out to sea off Lake Macquarie,New South Wales,AUSTRALIA,-31.433333,152.9,1587913200,2020-04-26T15:00:00+00:00,MSL,-0.8706361389160157,1.1227922058105468,2020-04-27|26 nautical miles out to sea off Lake Macquarie New South Wales AUSTRALIA
342,2020-04-27,Bar Beach Newcastle New South Wales AUSTRALIA,Bar Beach,New South Wales,AUSTRALIA,-32.94,151.767778,1587913200,2020-04-26T15:00:00+00:00,MSL,-0.8734986114501954,1.0784809112548828,2020-04-27|Bar Beach Newcastle New South Wales AUSTRALIA
343,2020-04-27,Paramatta River near Sydney New South Wales AUSTRALIA,Paramatta River (near Sydney),New South Wales,AUSTRALIA,-33.834442700000004,151.0923358,1587913200,2020-04-26T15:00:00+00:00,MSL,-0.8621099853515625,1.0487445831298827,2020-04-27|Paramatta River near Sydney New South Wales AUSTRALIA
344,2020-04-27,Just north of Fingal Spit New South Wales AUSTRALIA,Just north of Fingal Spit,New South Wales,AUSTRALIA,-32.750155,152.16318700000002,1587913200,2020-04-26T15:00:00+00:00,MSL,-0.8727862548828125,1.0824812316894532,2020-04-27|Just north of Fingal Spit New South Wales AUSTRALIA
345,2020-04-27,Collie River Western Australia AUSTRALIA,Collie River,Western Australia,AUSTRALIA,-33.3057308,115.788155,1587913200,2020-04-26T15:00:00+00:00,MSL,-0.4827304458618164,0.4932203674316406,2020-04-27|Collie River Western Australia AUSTRALIA
346,2020-04-27,Honeycombs 250 km south of Perth Western Australia AUSTRALIA,Honeycombs,Western Australia,AUSTRALIA,-31.950526899999996,115.8604572,1587913200,2020-04-26T15:00:00+00:00,MSL,-0.43631591796875,0.46526737213134767,2020-04-27|Honeycombs 250 km south of Perth Western Australia AUSTRALIA
347,2020-04-27,Flat Rock Beach Lennox Head New South Wales AUSTRALIA,Flat Rock Beach,New South Wales,AUSTRALIA,-28.842362599999998,153.60194730000003,1587913200,2020-04-26T15:00:00+00:00,MSL,-0.8868402099609375,1.1673131561279297,2020-04-27|Flat Rock Beach Lennox Head New South Wales AUSTRALIA
348,2020-04-27,Leighton Beach south of North Cottesloe Western Australia AUSTRALIA,Leighton Beach,Western Australia,AUSTRALIA,-32.028432,115.7503284,1587913200,2020-04-26T15:00:00+00:00,MSL,-0.435899543762207,0.46491676330566406,2020-04-27|Leighton Beach south of North Cottesloe Western Australia AUSTRALIA
349,2020-04-27,200 miles offshore Queensland AUSTRALIA,200 miles offshore,Queensland,AUSTRALIA,-20.9175738,142.7027956,1587913200,2020-04-26T15:00:00+00:00,MSL,-2.096474304199219,2.3064971923828126,2020-04-27|200 miles offshore Queensland AUSTRALIA
350,2020-04-27,Moreton Bay NE of Brisbane Queensland AUSTRALIA,Moreton Bay,Queensland,AUSTRALIA,-27.3123953,153.3446649,1587913200,2020-04-26T15:00:00+00:00,MSL,-1.305577392578125,1.5723896789550782,2020-04-27|Moreton Bay NE of Brisbane Queensland AUSTRALIA
351,2020-04-27,Lord Howe Island island group 440 miles northeast of Sydney New South Wales AUSTRALIA,Lord Howe Island (island group 440 miles northeast of Sydney),New South Wales,AUSTRALIA,-31.555326300000004,159.0821211,1587913200,2020-04-26T15:00:00+00:00,MSL,-0.965145492553711,1.1319964599609376,2020-04-27|Lord Howe Island island group 440 miles northeast of Sydney New South Wales AUSTRALIA
352,2020-04-27,Noraville New South Wales AUSTRALIA,Noraville,New South Wales,AUSTRALIA,-33.268863,151.5559438,1587913200,2020-04-26T15:00:00+00:00,MSL,-0.8700106048583984,1.067514877319336,2020-04-27|Noraville New South Wales AUSTRALIA
353,2020-04-27,Nambucca River Entrance New South Wales AUSTRALIA,Nambucca River Entrance,New South Wales,AUSTRALIA,-30.6419702,152.9978834,1587913200,2020-04-26T15:00:00+00:00,MSL,-0.8769152069091797,1.1307488250732423,2020-04-27|Nambucca River Entrance New South Wales AUSTRALIA
354,2020-04-27,Albany incident took place 200 metres from swimmers Western Australia AUSTRALIA,Albany (incident took place 200 metres from swimmers),Western Australia,AUSTRALIA,-35.0269344,117.8837206,1587913200,2020-04-26T15:00:00+00:00,MSL,-0.5100648880004883,0.5887093353271484,2020-04-27|Albany incident took place 200 metres from swimmers Western Australia AUSTRALIA
355,2020-04-27,Broome Head New South Wales AUSTRALIA,Broome Head,New South Wales,AUSTRALIA,-29.6430001,153.30745190000002,1587913200,2020-04-26T15:00:00+00:00,MSL,-0.8867608642578125,1.1520135498046875,2020-04-27|Broome Head New South Wales AUSTRALIA
356,2020-04-27,South West Rocks New South Wales AUSTRALIA,South West Rocks,New South Wales,AUSTRALIA,-30.884166999999998,153.040278,1587913200,2020-04-26T15:00:00+00:00,MSL,-0.8745317077636718,1.1258845520019531,2020-04-27|South West Rocks New South Wales AUSTRALIA
357,2020-04-27,Adelaide South Australia AUSTRALIA,Adelaide,South Australia,AUSTRALIA,-34.9284989,138.6007456,1587913200,2020-04-26T15:00:00+00:00,MSL,-1.1855183410644532,1.3907000732421875,2020-04-27|Adelaide South Australia AUSTRALIA
358,2020-04-27,Flinders Cay Queensland AUSTRALIA,Flinders Cay,Queensland,AUSTRALIA,-21.0184301,144.4342138,1587913200,2020-04-26T15:00:00+00:00,MSL,-1.8831201171875,1.982896270751953,2020-04-27|Flinders Cay Queensland AUSTRALIA
359,2020-04-27,3 km off Port Victoria Yorke Peninsula South Australia AUSTRALIA,3 km off Port Victoria,South Australia,AUSTRALIA,-34.496666999999995,137.48333300000002,1587913200,2020-04-26T15:00:00+00:00,MSL,-0.6183130264282226,0.8376337432861328,2020-04-27|3 km off Port Victoria Yorke Peninsula South Australia AUSTRALIA
360,2020-04-27,Sykes Reef Great Barrier Reef Queensland AUSTRALIA,Sykes Reef,Queensland,AUSTRALIA,-23.439513899999998,152.0395475,1587913200,2020-04-26T15:00:00+00:00,MSL,-1.3267201232910155,1.6546908569335939,2020-04-27|Sykes Reef Great Barrier Reef Queensland AUSTRALIA
361,2020-04-27,Orpheus Island Queensland AUSTRALIA,Orpheus Island,Queensland,AUSTRALIA,-18.6160685,146.49719950000002,1587913200,2020-04-26T15:00:00+00:00,MSL,-1.7670964050292968,1.8658883666992188,2020-04-27|Orpheus Island Queensland AUSTRALIA
362,2020-04-27,Ceduna South Australia AUSTRALIA,Ceduna,South Australia,AUSTRALIA,-32.130585100000005,133.6817145,1587913200,2020-04-26T15:00:00+00:00,MSL,-0.7817691040039062,1.0322600555419923,2020-04-27|Ceduna South Australia AUSTRALIA
363,2020-04-27,Cottesloe Beach Perth Western Australia AUSTRALIA,Cottesloe Beach,Western Australia,AUSTRALIA,-32.0135412,115.76343659999999,1587913200,2020-04-26T15:00:00+00:00,MSL,-0.435899543762207,0.46491676330566406,2020-04-27|Cottesloe Beach Perth Western Australia AUSTRALIA
364,2020-04-27,Peel Island Queensland AUSTRALIA,Peel Island,Queensland,AUSTRALIA,-27.500573499999998,153.34761269999998,1587913200,2020-04-26T15:00:00+00:00,MSL,-1.4301530456542968,1.6819700622558593,2020-04-27|Peel Island Queensland AUSTRALIA
365,2020-04-27,Black Point Eyre Peninsula South Australia AUSTRALIA,Black Point,South Australia,AUSTRALIA,-34.6106775,137.8773175,1587913200,2020-04-26T15:00:00+00:00,MSL,-1.4333395385742187,1.6452021789550781,2020-04-27|Black Point Eyre Peninsula South Australia AUSTRALIA
366,2020-04-27,Cactus Beach near Penong South Australia AUSTRALIA,Cactus Beach near Penong,South Australia,AUSTRALIA,-32.083500300000004,132.982204,1587913200,2020-04-26T15:00:00+00:00,MSL,-0.7137812805175782,0.9763732147216797,2020-04-27|Cactus Beach near Penong South Australia AUSTRALIA
367,2020-04-27,Wollongong New South Wales AUSTRALIA,Wollongong,New South Wales,AUSTRALIA,-34.427812100000004,150.89306069999998,1587913200,2020-04-26T15:00:00+00:00,MSL,-0.8554792785644532,1.032839813232422,2020-04-27|Wollongong New South Wales AUSTRALIA
368,2020-04-27,Koonya Beach Melbourne Victoria AUSTRALIA,Koonya Beach,Victoria,AUSTRALIA,-38.3632275,144.7513372,1587913200,2020-04-26T15:00:00+00:00,MSL,-1.4798466491699218,1.3315963745117188,2020-04-27|Koonya Beach Melbourne Victoria AUSTRALIA
369,2020-04-27,Main Beach Gold Coast Queensland AUSTRALIA,Main Beach,Queensland,AUSTRALIA,-27.963,153.42600000000002,1587913200,2020-04-26T15:00:00+00:00,MSL,-0.8968606567382813,1.1874234771728516,2020-04-27|Main Beach Gold Coast Queensland AUSTRALIA
370,2020-04-27,McMasters Beach Central Coast New South Wales AUSTRALIA,McMasters Beach,New South Wales,AUSTRALIA,-33.4967169,151.4114482,1587913200,2020-04-26T15:00:00+00:00,MSL,-0.8670728302001953,1.057611846923828,2020-04-27|McMasters Beach Central Coast New South Wales AUSTRALIA
371,2020-04-27,Parramatta River New South Wales AUSTRALIA,Parramatta River,New South Wales,AUSTRALIA,-33.834442700000004,151.0923358,1587913200,2020-04-26T15:00:00+00:00,MSL,-0.8621099853515625,1.0487445831298827,2020-04-27|Parramatta River New South Wales AUSTRALIA
372,2020-04-27,Taronga Wharf Athol Bay Sydney Harbor New South Wales AUSTRALIA,Taronga Wharf,New South Wales,AUSTRALIA,-33.845791,151.239746,1587913200,2020-04-26T15:00:00+00:00,MSL,-0.8615251159667969,1.0466612243652345,2020-04-27|Taronga Wharf Athol Bay Sydney Harbor New South Wales AUSTRALIA
373,2020-04-27,Point Sinclair Cactus Beach near Penong South Australia AUSTRALIA,Point Sinclair,South Australia,AUSTRALIA,-32.0102589,132.98821940000002,1587913200,2020-04-26T15:00:00+00:00,MSL,-0.71382080078125,0.9758206939697266,2020-04-27|Point Sinclair Cactus Beach near Penong South Australia AUSTRALIA
374,2020-04-27,Hardwicke Bay Yorke Peninsula South Australia AUSTRALIA,Hardwicke Bay,South Australia,AUSTRALIA,-34.889309600000004,137.45835280000003,1587913200,2020-04-26T15:00:00+00:00,MSL,-0.6115230178833008,0.8226993560791016,2020-04-27|Hardwicke Bay Yorke Peninsula South Australia AUSTRALIA
375,2020-04-27,Scotts Head New South Wales AUSTRALIA,Scotts Head,New South Wales,AUSTRALIA,-30.7492859,152.9941554,1587913200,2020-04-26T15:00:00+00:00,MSL,-0.8760198974609374,1.1284033966064453,2020-04-27|Scotts Head New South Wales AUSTRALIA
376,2020-04-27,Middleton Beach South Australia AUSTRALIA,Middleton Beach,South Australia,AUSTRALIA,-35.51150689999999,138.7185508,1587913200,2020-04-26T15:00:00+00:00,MSL,-0.5677129745483398,0.7340298461914062,2020-04-27|Middleton Beach South Australia AUSTRALIA
377,2020-04-27,South Neptune Island South Australia AUSTRALIA,South Neptune Island,South Australia,AUSTRALIA,-35.3295695,136.11835280000003,1587913200,2020-04-26T15:00:00+00:00,MSL,-0.5057203292846679,0.7019461059570312,2020-04-27|South Neptune Island South Australia AUSTRALIA
378,2020-04-27,Whale Beach New South Wales AUSTRALIA,Whale Beach,New South Wales,AUSTRALIA,-33.6131448,151.3304989,1587913200,2020-04-26T15:00:00+00:00,MSL,-0.8662629699707032,1.0545095825195312,2020-04-27|Whale Beach New South Wales AUSTRALIA
379,2020-04-27,Botany Bay? New South Wales AUSTRALIA,Botany Bay?,New South Wales,AUSTRALIA,-33.9930374,151.175278,1587913200,2020-04-26T15:00:00+00:00,MSL,-0.8590452575683594,1.0404325103759766,2020-04-27|Botany Bay? New South Wales AUSTRALIA
380,2020-04-27,Pincushion north of Maroochydore Beach Queensland AUSTRALIA,Pincushion,Queensland,AUSTRALIA,-26.6476538,153.1031686,1587913200,2020-04-26T15:00:00+00:00,MSL,-0.9415785980224609,1.215576171875,2020-04-27|Pincushion north of Maroochydore Beach Queensland AUSTRALIA
