,beach_address,beach_name,country_state,country,latitude,longitude,postal_code,formatted_address,location_type,Img url
0,Windang Beach New South Wales AUSTRALIA,Windang Beach,New South Wales,AUSTRALIA,-34.5343248,150.8745658,,,APPROXIMATE,
1,North West Island Queensland AUSTRALIA,North West Island,Queensland,AUSTRALIA,-23.2950882,151.7078724,4805,"North West Island, Queensland 4805, Australia",APPROXIMATE,
2,Cull Island  Esperance Western Australia AUSTRALIA,Cull Island / Esperance,Western Australia,AUSTRALIA,-33.9221794,121.9032181,,,APPROXIMATE,
3,Esperance Western Australia AUSTRALIA,Esperance,Western Australia,AUSTRALIA,-33.8613103,121.8914238,6450,"Esperance WA 6450, Australia",APPROXIMATE,
5,Shellharbour New South Wales AUSTRALIA,Shellharbour,New South Wales,AUSTRALIA,-34.583333,150.866667,2529,"Shellharbour NSW 2529, Australia",APPROXIMATE,
6,Exmouth Western Australia AUSTRALIA,Exmouth,Western Australia,AUSTRALIA,-21.9313388,114.1236812,6707,"Exmouth WA 6707, Australia",APPROXIMATE,
7,Bargara Queensland AUSTRALIA,Bargara,Queensland,AUSTRALIA,-24.8312314,152.4592208,4670,"Bargara QLD 4670, Australia",APPROXIMATE,
8,Elliot Head near Bundaberg Queensland AUSTRALIA,Elliot Head,Queensland,AUSTRALIA,-24.916667,152.483333,4670,"Elliott Heads QLD 4670, Australia",APPROXIMATE,
9,Off Airlie Beach Whitsundays Queensland AUSTRALIA,Off Airlie Beach,Queensland,AUSTRALIA,-20.2675,148.716944,4802,"Airlie Beach QLD 4802, Australia",APPROXIMATE,
10,Woorim Beach Bribie Island Queensland AUSTRALIA,Woorim Beach,Queensland,AUSTRALIA,-27.0609079,153.2006374,Australia,"Woorim Beach, Woorim QLD 4507, Australia",GEOMETRIC_CENTER,
11,Lighthouse Beach New South Wales AUSTRALIA,Lighthouse Beach,New South Wales,AUSTRALIA,-31.4789172,152.9298045,Australia,"Lighthouse Beach, Port Macquarie NSW 2444, Australia",APPROXIMATE,
12,Burns Beach Perth Western Australia AUSTRALIA,Burns Beach,Western Australia,AUSTRALIA,-31.7246872,115.7248959,6028,"Burns Beach WA 6028, Australia",APPROXIMATE,
13,Magra Islet Queensland AUSTRALIA,Magra Islet,Queensland,AUSTRALIA,-11.8573472,143.2815326,Australia,"Magra Islet, Shelburne QLD 4874, Australia",APPROXIMATE,
14,Pelican Waters Caloundra Queensland AUSTRALIA,Pelican Waters,Queensland,AUSTRALIA,-26.799,153.133,4551,"Caloundra QLD 4551, Australia",APPROXIMATE,
15,Maatsuyker Island Tasmania AUSTRALIA,Maatsuyker Island,Tasmania,AUSTRALIA,-43.6522707,146.2769813,,,APPROXIMATE,
16,Lennox Head New South Wales AUSTRALIA,Lennox Head,New South Wales,AUSTRALIA,-28.8,153.583333,2478,"Lennox Head NSW 2478, Australia",APPROXIMATE,
17,Yandaran Beach Queensland AUSTRALIA,Yandaran Beach,Queensland,AUSTRALIA,-24.6086132,152.1303962,Queensland,"Norval Park, Park Street, Yandaran QLD 4673, Australia",GEOMETRIC_CENTER,
18,Tomaree New South Wales AUSTRALIA,Tomaree,New South Wales,AUSTRALIA,-31.8894897,152.4444453,2430,"Taree NSW 2430, Australia",APPROXIMATE,
19,Line Reef Queensland AUSTRALIA,Line Reef,Queensland,AUSTRALIA,-19.674144,149.1746224,,,APPROXIMATE,
20,Belongil Bay New South Wales AUSTRALIA,Belongil Bay,New South Wales,AUSTRALIA,-28.6337328,153.6003455,Australia,"Belongil Beach, Byron Bay NSW 2481, Australia",APPROXIMATE,
21,Urunga area New South Wales AUSTRALIA,Urunga area,New South Wales,AUSTRALIA,-30.5,153.016667,2455,"Urunga NSW 2455, Australia",APPROXIMATE,
22,North Cottesloe Western Australia AUSTRALIA,North Cottesloe,Western Australia,AUSTRALIA,-31.9819839,115.7609704,6011,"North St, Cottesloe WA 6011, Australia",GEOMETRIC_CENTER,
23,Catseye Beach Hamilton Island Whitsundays Queensland AUSTRALIA,Catseye Beach,Queensland,AUSTRALIA,-20.3464395,148.9574515,Queensland,"4803 Resort Dr, Whitsundays QLD 4803, Australia",ROOFTOP,
24,Nambucca New South Wales AUSTRALIA,Nambucca,New South Wales,AUSTRALIA,-30.666463,152.7323884,,,APPROXIMATE,
25,7 Mile Beach Gerroa New South Wales AUSTRALIA,7 Mile Beach,New South Wales,AUSTRALIA,-34.7699,150.813133,2534,"Gerroa NSW 2534, Australia",APPROXIMATE,
26,Pyramids Beach Mandurah Western Australia AUSTRALIA,Pyramids Beach,Western Australia,AUSTRALIA,-32.6036041,115.6304031,6211,"Dawesville WA 6211, Australia",GEOMETRIC_CENTER,
27,Shelly Beach Ballina New South Wales AUSTRALIA,Shelly Beach,New South Wales,AUSTRALIA,-28.8632285,153.5943512,Australia,"Shelly Beach, East Ballina NSW 2478, Australia",APPROXIMATE,
28,Cid Harbor Whitsundays Queensland AUSTRALIA,Cid Harbor,Queensland,AUSTRALIA,-20.25,148.9333333,Australia,"Cid Harbour, Whitsundays QLD 4802, Australia",APPROXIMATE,
29,Guillotines surf break Shire of Augusta Margaret River Western Australia AUSTRALIA,Guillotines surf break,Western Australia,AUSTRALIA,-34.1622739,115.188916,,,APPROXIMATE,
30,Samurai Beach New South Wales AUSTRALIA,Samurai Beach,New South Wales,AUSTRALIA,-32.7673021,152.1244595,New South Wales,"545 Gan Gan Rd, One Mile NSW 2316, Australia",ROOFTOP,
31,Two Rocks near Three Mile Reef Western Australia AUSTRALIA,Two Rocks near Three Mile Reef,Western Australia,AUSTRALIA,-31.7755556,115.675,,,APPROXIMATE,
32,Swain Reef Queensland AUSTRALIA,Swain Reef,Queensland,AUSTRALIA,-21.9813586,152.473207,,,GEOMETRIC_CENTER,
33,Arrawarra Headland New South Wales AUSTRALIA,Arrawarra Headland,New South Wales,AUSTRALIA,-30.068611,153.195278,2456,"Arrawarra Headland NSW 2456, Australia",APPROXIMATE,
34,Flat Rock Ballina New South Wales AUSTRALIA,Flat Rock,New South Wales,AUSTRALIA,-28.8423626,153.6019473,2478,"Flat Rock Rd, New South Wales 2478, Australia",GEOMETRIC_CENTER,
35,Cairns Aquarium Queensland AUSTRALIA,Cairns Aquarium,Queensland,AUSTRALIA,-16.9184171,145.7738313,Queensland,"5 Florence St, Cairns City QLD 4870, Australia",ROOFTOP,
36,Dugong Bay Westerm Australia AUSTRALIA,Dugong Bay,Western Australia,AUSTRALIA,-16.395,123.8722222,,,APPROXIMATE,
37,Sharpes Beach Ballina New South Wales AUSTRALIA,Sharpes Beach,New South Wales,AUSTRALIA,-28.8338657,153.6051499,2478,"Skennars Head NSW 2478, Australia",GEOMETRIC_CENTER,
38,Gearys Beach Western Australia AUSTRALIA,Gearys Beach,Western Australia,AUSTRALIA,-27.6728168,121.6283098,,,APPROXIMATE,
40,Surfers Point Prevelly Western Australia AUSTRALIA,Surfers Point,Western Australia,AUSTRALIA,-33.9767383,114.9859836,Australia,"Surfers Point Rd, Prevelly WA 6285, Australia",GEOMETRIC_CENTER,
41,South Point Gracetown Western Australia AUSTRALIA,South Point,Western Australia,AUSTRALIA,-33.8638221,114.9769458,Australia,"Cowaramup Bay Rd, Gracetown WA 6284, Australia",GEOMETRIC_CENTER,
42,Lefthanders Margaret River Area Western Australia AUSTRALIA,Lefthanders,Western Australia,AUSTRALIA,-33.8752851,114.9861132,Australia,"Lefthanders Rd, Gracetown WA 6284, Australia",GEOMETRIC_CENTER,
43,Cobblestones Margaret River Area Western Australia AUSTRALIA,Cobblestones,Western Australia,AUSTRALIA,-33.9610465,115.0767388,6285,"Margaret River WA 6285, Australia",APPROXIMATE,
44,Watermans Bay Western Australia AUSTRALIA,Waterman's Bay,Western Australia,AUSTRALIA,-31.8496013,115.7549052,6020,"Watermans Bay WA 6020, Australia",APPROXIMATE,
45,Lorne Victoria AUSTRALIA,Lorne,Victoria,AUSTRALIA,-38.5366556,143.9715484,3232,"Lorne VIC 3232, Australia",APPROXIMATE,Lorne
46,Winkipop Victoria AUSTRALIA,Winkipop,Victoria,AUSTRALIA,-38.3680831,144.2849552,Victoria,"90 Bells Beach Rd, Bells Beach VIC 3228, Australia",ROOFTOP,Winkipop
47,Little Congwong Beach La Perouse New South Wales AUSTRALIA,Little Congwong Beach,New South Wales,AUSTRALIA,-33.9915566,151.2383626,New South Wales,"1532R Anzac Parade, La Perouse NSW 2036, Australia",ROOFTOP,
48,Westernport Bay Victoria AUSTRALIA,Westernport Bay,Victoria,AUSTRALIA,-38.3563059,145.2480193,,,APPROXIMATE,Westernport Bay
49,Surf Beach Kiama New South Wales AUSTRALIA,Surf Beach,New South Wales,AUSTRALIA,-34.6816667,150.8511111,Australia,"Surf Beach, Kiama NSW 2533, Australia",APPROXIMATE,
50,Mooloolaba Beach Queensland AUSTRALIA,Mooloolaba Beach,Queensland,AUSTRALIA,-26.6809437,153.121665,,,APPROXIMATE,
51,Avalon Point Manurah Western Australia AUSTRALIA,Avalon Point,Western Australia,AUSTRALIA,-32.5947053,115.6329821,Australia,"Indian Ocean Dr, Wannanup WA 6210, Australia",GEOMETRIC_CENTER,
52,Cone Bay Western Australia AUSTRALIA,Cone Bay,Western Australia,AUSTRALIA,-16.4683333,123.5352778,,,APPROXIMATE,
53,Lizard Island Queensland AUSTRALIA,Lizard Island,Queensland,AUSTRALIA,-14.6680433,145.463777,Australia,"Lizard Island, Lizard QLD 4892, Australia",APPROXIMATE,
54,Martin Islet New South Wales AUSTRALIA,Martin Islet,New South Wales,AUSTRALIA,-34.4943401,150.9378248,,,APPROXIMATE,
56,Avoca Beach New South Wales AUSTRALIA,Avoca Beach,New South Wales,AUSTRALIA,-33.465,151.435,2251,"Avoca Beach NSW 2251, Australia",APPROXIMATE,
57,Magnetic Island Queensland AUSTRALIA,Magnetic Island,Queensland,AUSTRALIA,-19.1358653,146.8423556,,,APPROXIMATE,
58,Birubi Point New South Wales AUSTRALIA,Birubi Point,New South Wales,AUSTRALIA,-32.7884091,152.0803143,Australia,"Birubi Point, Anna Bay NSW 2316, Australia",APPROXIMATE,
59,Normanville South Australia AUSTRALIA,Normanville,South Australia,AUSTRALIA,-35.4463828,138.3215845,5204,"Normanville SA 5204, Australia",APPROXIMATE,
60,Gracetown Western Australia AUSTRALIA,Gracetown,Western Australia,AUSTRALIA,-33.8641558,114.9882251,6284,"Gracetown WA 6284, Australia",APPROXIMATE,
61,Esperance Westerm Australia AUSTRALIA,Esperance,Western Australia,AUSTRALIA,-33.8613103,121.8914238,6450,"Esperance WA 6450, Australia",APPROXIMATE,
62,Sams Creek area Westerm Australia AUSTRALIA,Sam's Creek area,Western Australia,AUSTRALIA,-20.6223242,117.1836798,Australia,"Sams Creek Rd, Point Samson WA 6720, Australia",GEOMETRIC_CENTER,
63,Iluka Beach New South Wales AUSTRALIA,Iluka Beach,New South Wales,AUSTRALIA,-29.4120103,153.3647477,,,APPROXIMATE,
64,Cathedral Rock Victoria AUSTRALIA,Cathedral Rock,Victoria,AUSTRALIA,-31.4344388,120.8563042,,,GEOMETRIC_CENTER,cathedral rock
65,Floreat Beach Western Australia AUSTRALIA,Floreat Beach,Western Australia,AUSTRALIA,-31.9289594,115.7548856,Australia,"Floreat Beach, City Beach WA 6015, Australia",APPROXIMATE,
66,Point Casuarina Bunbury Western Australia AUSTRALIA,Point Casuarina,Western Australia,AUSTRALIA,-33.3153009,115.6371109,Australia,"Casuarina Dr, Bunbury WA 6230, Australia",GEOMETRIC_CENTER,
67,Flinders Mornington Penisula Victoria AUSTRALIA,Flinders,Victoria,AUSTRALIA,-38.474,145.022,3929,"Flinders VIC 3929, Australia",APPROXIMATE,Flinders
68,Evans Head New South Wales AUSTRALIA,Evans Head,New South Wales,AUSTRALIA,-29.1086171,153.4217078,2473,"Evans Head NSW 2473, Australia",APPROXIMATE,Thirteenth Beach
69,Weipa Queensland AUSTRALIA,Weipa,Queensland,AUSTRALIA,-12.6492936,141.8469901,,,APPROXIMATE,Bells Beach
70,Kelpies near Wylie Bay Western Australia AUSTRALIA,Kelpies near Wylie Bay,Western Australia,AUSTRALIA,-33.8324777,121.9970721,,,APPROXIMATE,Tyrendarra Beach
71,Moreton Bay Queensland AUSTRALIA,Moreton Bay,Queensland,AUSTRALIA,-27.3123953,153.3446649,,,APPROXIMATE,Tyrendarra Beach near Portland
72,The Farm New South Wales AUSTRALIA,The Farm,New South Wales,AUSTRALIA,-34.072,150.718,2570,"Spring Farm NSW 2570, Australia",APPROXIMATE,Paradise Beach
73,Mauds Point Western Australia AUSTRALIA,Mauds Point,Western Australia,AUSTRALIA,-31.9542884,115.8624252,Western Australia,"97 Murray St, Perth WA 6000, Australia",ROOFTOP,Winkipop Beach
74,Falcon Bay Beach Mandurah Western Australia AUSTRALIA,Falcon Bay Beach,Western Australia,AUSTRALIA,-32.5785751,115.6535813,,,APPROXIMATE,Cape Nelson
75,Eva Rock Queensland AUSTRALIA,Eva Rock,Queensland,AUSTRALIA,-18.235612,146.3256112,Australia,"Eva Island, Hinchinbrook QLD 4849, Australia",APPROXIMATE,
76,Boot Reef Torres Strait Queensland AUSTRALIA,Boot Reef,Queensland,AUSTRALIA,-10.2199025,141.9368545,,,APPROXIMATE,
77,Clairview Queensland AUSTRALIA,Clairview,Queensland,AUSTRALIA,-22.0422664,149.4835735,4741,"Clairview QLD 4741, Australia",APPROXIMATE,
78,Merimbula New South Wales AUSTRALIA,Merimbula,New South Wales,AUSTRALIA,-36.8875485,149.9058748,2548,"Merimbula NSW 2548, Australia",APPROXIMATE,
79,Bundegi Sanctuary Zone Ningaloo Western Australia AUSTRALIA,Bundegi Sanctuary Zone,Western Australia,AUSTRALIA,-22.6799051,113.6980491,6701,"Ningaloo WA 6701, Australia",APPROXIMATE,
80,Trigg Beach Western Australia AUSTRALIA,Trigg Beach,Western Australia,AUSTRALIA,-31.8779189,115.7517755,,,APPROXIMATE,
82,Booti Booti National Park New South Wales AUSTRALIA,Booti Booti National Park,New South Wales,AUSTRALIA,-32.3127096,152.5179343,2428,"Booti Booti NSW 2428, Australia",APPROXIMATE,
83,Queenscliff Victoria AUSTRALIA,Queenscliff,Victoria,AUSTRALIA,-38.2677746,144.6286897,3225,"Queenscliff VIC 3225, Australia",APPROXIMATE,Queenscliff
84,Broken Head Beach New South Wales AUSTRALIA,Broken Head Beach,New South Wales,AUSTRALIA,-28.7018464,153.6139946,2481,"Broken Head Beach, New South Wales 2481, Australia",APPROXIMATE,Thirteenth Beach
85,Kings Beach Caloundra Queensland AUSTRALIA,Kings Beach,Queensland,AUSTRALIA,-26.801,153.141,4551,"Kings Beach QLD 4551, Australia",APPROXIMATE,Bells Beach
87,Lighthouse Beach Ballina New South Wales AUSTRALIA,Lighthouse Beach,New South Wales,AUSTRALIA,-28.8725999,153.5899247,Australia,"Lighthouse Beach, Ballina, East Ballina NSW 2478, Australia",APPROXIMATE,Tyrendarra Beach
88,Thirteenth Beach Victoria AUSTRALIA,Thirteenth Beach,Victoria,AUSTRALIA,-38.2852436,144.4587149,,,APPROXIMATE,Thirteenth Beach
89,Bells Beach Victoria AUSTRALIA,Bells Beach,Victoria,AUSTRALIA,-38.366944,144.284722,3228,"Bells Beach VIC 3228, Australia",APPROXIMATE,Bells Beach
90,Bunbury Western Australia AUSTRALIA,Bunbury,Western Australia,AUSTRALIA,-33.3209971,115.6383482,6230,"Bunbury WA 6230, Australia",APPROXIMATE,Winkipop Beach
91,Injidup Western Australia AUSTRALIA,Injidup,Western Australia,AUSTRALIA,-33.6930914,114.9857991,,,APPROXIMATE,Cape Nelson
92,Near Albany Western Australia AUSTRALIA,Near Albany,Western Australia,AUSTRALIA,-35.0269344,117.8837206,6330,"Albany WA 6330, Australia",APPROXIMATE,
94,Clifton Beach Tasmania AUSTRALIA,Clifton Beach,Tasmania,AUSTRALIA,-42.989444,147.521667,7020,"Clifton Beach TAS 7020, Australia",APPROXIMATE,
95,20 k off The Spit off the Gold Coast Queensland AUSTRALIA,20 k off The Spit,Queensland,AUSTRALIA,-27.9352516,153.4334768,4217,"Seaworld Dr, Main Beach QLD 4217, Australia",GEOMETRIC_CENTER,
96,Palm Cove Queensland AUSTRALIA,Palm Cove,Queensland,AUSTRALIA,-16.74405,145.67095,4879,"Palm Cove QLD 4879, Australia",APPROXIMATE,
97,Coral Bay Western Australia AUSTRALIA,Coral Bay,Western Australia,AUSTRALIA,-23.1436708,113.7715359,6701,"Coral Bay WA 6701, Australia",APPROXIMATE,
98,Mindarie Western Australia AUSTRALIA,Mindarie,Western Australia,AUSTRALIA,-31.6900771,115.7060487,6030,"Mindarie WA 6030, Australia",APPROXIMATE,
99,Kingscliff New South Wales AUSTRALIA,Kingscliff,New South Wales,AUSTRALIA,-28.2645938,153.5776602,2487,"Kingscliff NSW 2487, Australia",APPROXIMATE,
100,Falcon Beach Mandurah Western Australia AUSTRALIA,Falcon Beach,Western Australia,AUSTRALIA,-32.5785751,115.6535813,,,APPROXIMATE,
101,First Sun Beach Byron Bay New South Wales AUSTRALIA,First Sun Beach,New South Wales,AUSTRALIA,-28.6410983,153.611705,New South Wales,"First Sun Holiday Park, Lawson St, Byron Bay NSW 2481, Australia",GEOMETRIC_CENTER,
102,Bombo Beach New South Wales AUSTRALIA,Bombo Beach,New South Wales,AUSTRALIA,-34.6560412,150.8556659,2533,"Bombo Beach, New South Wales 2533, Australia",APPROXIMATE,
103,North Cronulla Beach New South Wales AUSTRALIA,North Cronulla Beach,New South Wales,AUSTRALIA,-34.0496066,151.1572211,Australia,"North Cronulla Beach, Cronulla NSW 2230, Australia",APPROXIMATE,
104,Wrights Bay South Australia AUSTRALIA,Wrights Bay,South Australia,AUSTRALIA,-37.0330556,139.7411111,,,APPROXIMATE,
105,Nettley Bay Tasmania AUSTRALIA,Nettley Bay,Tasmania,AUSTRALIA,-40.93,144.62,,,APPROXIMATE,
106,Stradbroke Island Queensland AUSTRALIA,Stradbroke Island,Queensland,AUSTRALIA,-27.5323174,153.4626077,4183,"North Stradbroke Island, Queensland 4183, Australia",APPROXIMATE,
107,Hams Beach New South Wales AUSTRALIA,Hams Beach,New South Wales,AUSTRALIA,-33.097531,151.658097,Australia,"Hams Beach, Swansea Heads NSW 2281, Australia",APPROXIMATE,
108,Happy Valley Beach Caloundra Queensland AUSTRALIA,Happy Valley Beach,Queensland,AUSTRALIA,-26.8071839,153.1342489,Queensland,"Happy Valley, Esplanade Bulcock Beach, Caloundra QLD 4551, Australia",GEOMETRIC_CENTER,
109,Heron Island Queensland AUSTRALIA,Heron Island,Queensland,AUSTRALIA,-23.4422976,151.9148004,4805,"Heron Island, Queensland 4805, Australia",APPROXIMATE,
110,Miall Island Queensland AUSTRALIA,Miall Island,Queensland,AUSTRALIA,-23.1528552,150.9052831,Australia,"Miall (Ma-ma-lon-bi) Island, The Keppels QLD 4700, Australia",APPROXIMATE,
111,Bondi Beach New South Wales AUSTRALIA,Bondi Beach,New South Wales,AUSTRALIA,-33.8914755,151.2766845,Australia,"Bondi Beach, NSW 2026, Australia",APPROXIMATE,
112,Lake Macquarie New South Wales AUSTRALIA,Lake Macquarie,New South Wales,AUSTRALIA,-33.0311225,151.5603244,,,APPROXIMATE,
113,East Ballina New South Wales AUSTRALIA,East Ballina,New South Wales,AUSTRALIA,-28.8537305,153.5865127,2478,"East Ballina NSW 2478, Australia",APPROXIMATE,
114,Bald Island Western Australia AUSTRALIA,Bald Island,Western Australia,AUSTRALIA,-34.9233188,118.4688776,6328,"Bald Island, Western Australia 6328, Australia",APPROXIMATE,
115,Pyramids Beach Western Australia AUSTRALIA,Pyramids Beach,Western Australia,AUSTRALIA,-32.6036041,115.6304031,6211,"Dawesville WA 6211, Australia",GEOMETRIC_CENTER,
116,Russel Island Frankland Group Queensland AUSTRALIA,Russel Island,Queensland,AUSTRALIA,-17.2291545,146.0940022,Australia,"Russell Island, East Russell QLD 4861, Australia",APPROXIMATE,
117,North Shelly Beach New South Wales AUSTRALIA,North Shelly Beach,New South Wales,AUSTRALIA,-33.3699595,151.4858695,2261,"Shelly Beach NSW 2261, Australia",APPROXIMATE,
118,Hallidays Point New South Wales AUSTRALIA,Hallidays Point,New South Wales,AUSTRALIA,-32.0683509,152.5149982,2430,"Hallidays Point NSW 2430, Australia",APPROXIMATE,
121,Tyrendarra Beach Victoria AUSTRALIA,Tyrendarra Beach,Victoria,AUSTRALIA,-38.216667,141.783333,,,APPROXIMATE,Tyrendarra Beach
122,Lachan Island Mercury Passage Tasmania AUSTRALIA,Lachan Island,Tasmania,AUSTRALIA,-42.6427436,147.9776183,,,APPROXIMATE,
123,Tyrendarra Beach near Portland Victoria AUSTRALIA,Tyrendarra Beach near Portland,Victoria,AUSTRALIA,-38.2507144,141.806322,Australia,"Fitzroy River, Tyrendarra VIC 3285, Australia",APPROXIMATE,Queenscliff
126,Flat Rock Yamba New South Wales AUSTRALIA,Flat Rock,New South Wales,AUSTRALIA,-29.4372663,153.3652792,New South Wales,"4 Queen St, Yamba NSW 2464, Australia",ROOFTOP,
127,Rottnest Island Western Australia AUSTRALIA,Rottnest Island,Western Australia,AUSTRALIA,-32.0063677,115.5073002,6161,"Rottnest Island WA 6161, Australia",APPROXIMATE,
128,Denmark Western Australia AUSTRALIA,Denmark,Western Australia,AUSTRALIA,-34.9617565,117.35065,6333,"Denmark WA 6333, Australia",APPROXIMATE,
129,Saltwater Beach New South Wales AUSTRALIA,Saltwater Beach,New South Wales,AUSTRALIA,-32.0108318,152.5628989,Australia,"Saltwater Beach, Diamond Beach NSW 2430, Australia",APPROXIMATE,
130,Fishery Bay South Australia AUSTRALIA,Fishery Bay,South Australia,AUSTRALIA,-34.9141667,135.6861111,,,APPROXIMATE,
131,Belongil Beach Byron Bay New South Wales AUSTRALIA,Belongil Beach,New South Wales,AUSTRALIA,-28.6337328,153.6003455,Australia,"Belongil Beach, Byron Bay NSW 2481, Australia",APPROXIMATE,
132,McKenzies Beach New South Wales AUSTRALIA,McKenzies Beach,New South Wales,AUSTRALIA,-35.8043718,150.226363,Australia,"Mckenzies Beach, Malua Bay NSW 2536, Australia",APPROXIMATE,
133,Julian Rocks Byron Bay New South Wales AUSTRALIA,Julian Rocks,New South Wales,AUSTRALIA,-28.643716,153.615072,Byron Shire Council,"11/8 Middleton St, Byron Bay NSW 2481, Australia",ROOFTOP,
134,Shelly Beach New South Wales AUSTRALIA,Shelly Beach,New South Wales,AUSTRALIA,-33.3699595,151.4858695,2261,"Shelly Beach NSW 2261, Australia",APPROXIMATE,
135,Seven Mile Beach Byron Bay New South Wales AUSTRALIA,Seven Mile Beach,New South Wales,AUSTRALIA,-28.7186968,153.6118865,Australia,"Seven Mile Beach Rd, Broken Head NSW 2481, Australia",GEOMETRIC_CENTER,
136,Mereweather Beach New South Wales AUSTRALIA,Mereweather Beach,New South Wales,AUSTRALIA,-32.9465493,151.7599466,,,APPROXIMATE,
137,Nerang River Surfers Paradise Queensland AUSTRALIA,Nerang River,Queensland,AUSTRALIA,-27.9889011,153.4257263,4217,"Nerang River, Queensland 4217, Australia",APPROXIMATE,
138,Flat Rock New South Wales AUSTRALIA,Flat Rock,New South Wales,AUSTRALIA,-35.2341806,150.5299293,Australia,"Flat Rock Beach, Bendalong NSW 2539, Australia",APPROXIMATE,
139,Wategos Beach Byon Bay New South Wales AUSTRALIA,Wategos Beach,New South Wales,AUSTRALIA,-28.6364053,153.633824,,,APPROXIMATE,
140,Off Blacksmith Beach New South Wales AUSTRALIA,Off Blacksmith Beach,New South Wales,AUSTRALIA,-33.0515891,151.6680509,,,APPROXIMATE,
141,Mollymook Beach Bannister Head New South Wales AUSTRALIA,Mollymook Beach,New South Wales,AUSTRALIA,-35.3201228,150.4755673,Australia,"Bannister Head Rd, Mollymook Beach NSW 2539, Australia",GEOMETRIC_CENTER,
142,Bherwerre Beach New South Wales AUSTRALIA,Bherwerre Beach,New South Wales,AUSTRALIA,-35.1637346,150.6497392,,,APPROXIMATE,
143,Three Stripes near Cheynes Beach Western Australia AUSTRALIA,Three Stripes near Cheynes Beach,Western Australia,AUSTRALIA,-34.88414,118.404629,Western Australia,"12 Bald Island Road, Cheynes WA 6328, Australia",ROOFTOP,
144,Paradise Beach Victoria AUSTRALIA,Paradise Beach,Victoria,AUSTRALIA,-38.1992076,147.4033451,3851,"Paradise Beach VIC 3851, Australia",APPROXIMATE,Paradise Beach
145,Rudder Reef Queensland AUSTRALIA,Rudder Reef,Queensland,AUSTRALIA,-16.1906218,145.6990989,4805,"Rudder Reef, Queensland 4805, Australia",APPROXIMATE,
146,Pyramids Beach Port Bouvard Western Australia AUSTRALIA,Pyramids Beach,Western Australia,AUSTRALIA,-32.6036041,115.6304031,6211,"Dawesville WA 6211, Australia",GEOMETRIC_CENTER,
147,Freo Western Australia AUSTRALIA,Freo,Western Australia,AUSTRALIA,-32.0518191,115.7551085,6160,"Fremantle WA 6160, Australia",APPROXIMATE,
148,Moonee Beach New South Wales AUSTRALIA,Moonee Beach,New South Wales,AUSTRALIA,-30.1895467,153.1501948,2450,"Moonee Beach NSW 2450, Australia",APPROXIMATE,
149,Wallabi Point New South Wales AUSTRALIA,Wallabi Point,New South Wales,AUSTRALIA,-31.9920486,152.5590443,2430,"Wallabi Point NSW 2430, Australia",APPROXIMATE,
151,Castle Rock north of Dunsborough Western Australia AUSTRALIA,Castle Rock,Western Australia,AUSTRALIA,-33.5837629,115.0900006,Australia,"Castle Rock Rd, Dunsborough WA 6281, Australia",GEOMETRIC_CENTER,
152,Kelpids Beach Wylie Bay Esperance Western Australia AUSTRALIA,Kelpids Beach,Western Australia,AUSTRALIA,-33.8356954,121.9840825,Australia,"Wylie Bay Rd, Bandy Creek WA 6450, Australia",GEOMETRIC_CENTER,
153,Clarkes Beach Byron Bay New South Wales AUSTRALIA,Clarkes Beach,New South Wales,AUSTRALIA,-28.6396907,153.6272755,Australia,"Clarkes Beach, Byron Bay NSW 2481, Australia",APPROXIMATE,
154,Gnaraloo Western Australia AUSTRALIA,Gnaraloo,Western Australia,AUSTRALIA,-23.8214,113.523903,Australia,"Gnaraloo, Macleod WA 6701, Australia",APPROXIMATE,
155,Middleton Point Fleurieu Peninsula South Australia AUSTRALIA,Middleton Point,South Australia,AUSTRALIA,-35.5142799,138.70844,Australia,"Middleton Point, Middleton SA 5213, Australia",APPROXIMATE,
157,Horizontal Falls Western Australia AUSTRALIA,Horizontal Falls,Western Australia,AUSTRALIA,-17.947279,122.231078,Western Australia,"Hangar, 14 Gus Winckel Rd, Djugun WA 6725, Australia",ROOFTOP,
158,Parsons Beach Fleurieu Peninsula South Australia AUSTRALIA,Parsons Beach,South Australia,AUSTRALIA,-35.6305742,138.4671696,Australia,"Parsons Beach, Waitpinga SA 5211, Australia",APPROXIMATE,
159,Seven Mile Beach Gerroa New South Wales AUSTRALIA,Seven Mile Beach,New South Wales,AUSTRALIA,-34.7699,150.813133,2534,"Gerroa NSW 2534, Australia",APPROXIMATE,
160,Nerang River near Chevron Island Queensland AUSTRALIA,Nerang River near Chevron Island,Queensland,AUSTRALIA,-27.9973446,153.4198464,Australia,"Chevron Island, Surfers Paradise QLD 4217, Australia",APPROXIMATE,
161,The Australian Shark and Ray Centre New South Wales AUSTRALIA,The Australian Shark and Ray Centre,New South Wales,AUSTRALIA,-32.7706261,151.9986267,Port Stephens Council,"Irukandji Shark & Ray Encounters, 686 Marsh Rd, Bobs Farm NSW 2316, Australia",ROOFTOP,
162,Elliston Eyre Peninsula South Australia AUSTRALIA,Elliston,South Australia,AUSTRALIA,-34.3333333,135.75,Australia,"Eyre Peninsula, Cummins SA 5631, Australia",APPROXIMATE,
163,South Passage south of Coral Bay Western Australia AUSTRALIA,South Passage,Western Australia,AUSTRALIA,-23.1436708,113.7715359,6701,"Coral Bay WA 6701, Australia",APPROXIMATE,
164,Tathra New South Wales AUSTRALIA,Tathra,New South Wales,AUSTRALIA,-36.7360215,149.9674229,2550,"Tathra NSW 2550, Australia",APPROXIMATE,
165,Off Dawesville Cut Western Australia AUSTRALIA,Off Dawesville Cut,Western Australia,AUSTRALIA,-32.6070192,115.6397667,Australia,"Dawesville Channel, Dawesville WA 6211, Australia",APPROXIMATE,
169,Goldsmith Beach Yorke Peninsula South Australia AUSTRALIA,Goldsmith Beach,South Australia,AUSTRALIA,-35.1515337,137.6854778,Australia,"Goldsmith Beach, Honiton SA 5576, Australia",APPROXIMATE,
170,Umina Beach New South Wales AUSTRALIA,Umina Beach,New South Wales,AUSTRALIA,-33.528746,151.307503,Australia,"Umina, Umina Beach NSW 2257, Australia",APPROXIMATE,
171,Shelly Beach near Port Macquarie New South Wales AUSTRALIA,Shelly Beach,New South Wales,AUSTRALIA,-31.4540324,152.9314408,Australia,"Shelly Beach, Port Macquarie NSW 2444, Australia",APPROXIMATE,
172,Riecks Point Campbell‚Äôs Beach New South Wales AUSTRALIA,Riecks Point,New South Wales,AUSTRALIA,-30.2379185,153.1521762,Australia,"Riecks Point, Sapphire Beach NSW 2450, Australia",APPROXIMATE,
174,Trigg Beach Perth Western Australia AUSTRALIA,Trigg Beach,Western Australia,AUSTRALIA,-31.8779189,115.7517755,,,APPROXIMATE,
175,Turquoise Bay Western Australia AUSTRALIA,Turquoise Bay,Western Australia,AUSTRALIA,-22.0963889,113.8894444,,,APPROXIMATE,
176,Little Island near Hillarys Western Australia AUSTRALIA,Little Island,Western Australia,AUSTRALIA,-31.8123368,115.7091154,,,APPROXIMATE,
177,South Narrabeen Beach New South Wales AUSTRALIA,South Narrabeen Beach,New South Wales,AUSTRALIA,-33.7095423,151.3033826,,,APPROXIMATE,
178,Off Poison Creek Cape Arid Western Australia AUSTRALIA,Off Poison Creek,Western Australia,AUSTRALIA,-33.9036415,123.3512705,Australia,"Poison Creek Campsite, Cape Arid WA 6452, Australia",GEOMETRIC_CENTER,
179,Smiths New South Wales AUSTRALIA,Smiths,New South Wales,AUSTRALIA,-31.2532183,146.921099,,,APPROXIMATE,
181,Target Beach New South Wales AUSTRALIA,Target Beach,New South Wales,AUSTRALIA,-35.0712278,150.7829962,Australia,"Target Beach, Beecroft Peninsula NSW 2540, Australia",APPROXIMATE,
182,Emerald Beach New South Wales AUSTRALIA,Emerald Beach,New South Wales,AUSTRALIA,-30.1574794,153.1501948,2456,"Emerald Beach NSW 2456, Australia",APPROXIMATE,
183,Crowdy Head New South Wales AUSTRALIA,Crowdy Head,New South Wales,AUSTRALIA,-31.8443241,152.7265099,2427,"Crowdy Head NSW 2427, Australia",APPROXIMATE,
184,Perth Western Australia AUSTRALIA,Perth,Western Australia,AUSTRALIA,-31.9505269,115.8604572,,,APPROXIMATE,
185,Terrigal Beach New South Wales AUSTRALIA,Terrigal Beach,New South Wales,AUSTRALIA,-33.4461804,151.4447377,2260,"Terrigal Beach, New South Wales 2260, Australia",APPROXIMATE,
186,African Reef off Geraldton Western Australia AUSTRALIA,African Reef off Geraldton,Western Australia,AUSTRALIA,-28.802443,114.6185221,City of Greater Geraldton,"The African Reef, 5 Broadhead Ave, Rangeway WA 6530, Australia",ROOFTOP,
187,Cape Nelson Victoria AUSTRALIA,Cape Nelson,Victoria,AUSTRALIA,-38.3847394,141.565049,3305,"Cape Nelson Rd, Victoria 3305, Australia",GEOMETRIC_CENTER,Cape Nelson
188,Noosa Queensland AUSTRALIA,Noosa,Queensland,AUSTRALIA,-26.3645433,152.9676695,,,APPROXIMATE,
189,Bullcock Beach Queensland AUSTRALIA,Bullcock Beach,Queensland,AUSTRALIA,-26.8069452,153.131696,4551,"Bulcock Beach, Queensland 4551, Australia",APPROXIMATE,
190,Near Legendre Island Western Australia AUSTRALIA,Near Legendre Island,Western Australia,AUSTRALIA,-20.3853568,116.8763104,Australia,"Legendre Island, Dampier Archipelago WA 6713, Australia",APPROXIMATE,
191,Between Dee Why and Long Reef New South Wales AUSTRALIA,Between Dee Why and Long Reef,New South Wales,AUSTRALIA,-33.7460834,151.3040716,,,APPROXIMATE,
192,Kylies Beach Diamond Head New South Wales AUSTRALIA,Kylie's Beach,New South Wales,AUSTRALIA,-31.7353031,152.7916418,New South Wales,"Kylies Beach campground, Metcalfes Walk, Crowdy Bay National Park NSW 2443, Australia",GEOMETRIC_CENTER,
194,Green Island New South Wales AUSTRALIA,Green Island,New South Wales,AUSTRALIA,-35.2721138,150.5160592,,,APPROXIMATE,
195,Mooloolaba Queensland AUSTRALIA,Mooloolaba,Queensland,AUSTRALIA,-26.682,153.118,4557,"Mooloolaba QLD 4557, Australia",APPROXIMATE,
196,Mullaloo Beach Perth Western Australia AUSTRALIA,Mullaloo Beach,Western Australia,AUSTRALIA,-31.7789355,115.7325558,,,APPROXIMATE,
197,Red Bluff near Quobba Station Western Australia AUSTRALIA,Red Bluff near Quobba Station,Western Australia,AUSTRALIA,-24.05,113.4,,,APPROXIMATE,
198,Ocean Reef Western Australia AUSTRALIA,Ocean Reef,Western Australia,AUSTRALIA,-31.7600517,115.7332807,6027,"Ocean Reef WA 6027, Australia",APPROXIMATE,
199,Streaky Bay South Australia AUSTRALIA,Streaky Bay,South Australia,AUSTRALIA,-32.797222,134.211111,5680,"Streaky Bay SA 5680, Australia",APPROXIMATE,
200,Off Wedge Island Western Australia AUSTRALIA,Off Wedge Island,Western Australia,AUSTRALIA,-30.8277891,115.1879896,,,APPROXIMATE,
201,Ships Graveyard off Point Lonsdale Victoria AUSTRALIA,Ship's Graveyard off Point Lonsdale,Victoria,AUSTRALIA,-38.283333,144.6,,,APPROXIMATE,Ship's Graveyard off Point Lonsdal beach
202,South Cape Bay Tasmania AUSTRALIA,South Cape Bay,Tasmania,AUSTRALIA,-43.63,146.79,,,APPROXIMATE,
204,Port Campbell Victoria AUSTRALIA,Port Campbell,Victoria,AUSTRALIA,-38.6191008,142.9961352,3269,"Port Campbell VIC 3269, Australia",APPROXIMATE,Port Campbell
205,Redhead Beach Newcastle New South Wales AUSTRALIA,Redhead Beach,New South Wales,AUSTRALIA,-33.0204805,151.7091512,,,APPROXIMATE,
206,Dolphin Bay Innes National Park South Australia AUSTRALIA,Dolphin Bay,South Australia,AUSTRALIA,-35.2367081,136.897156,Australia,"Innes National Park, Inneston SA 5577, Australia",GEOMETRIC_CENTER,
207,Stratham Beach Western Australia AUSTRALIA,Stratham Beach,Western Australia,AUSTRALIA,-33.4665674,115.5602443,,,APPROXIMATE,
208,Kalbarri Western Australia AUSTRALIA,Kalbarri,Western Australia,AUSTRALIA,-27.7104192,114.1646201,6536,"Kalbarri WA 6536, Australia",APPROXIMATE,
209,Nobbys Beach Queensland AUSTRALIA,Nobby's Beach,Queensland,AUSTRALIA,-28.0534335,153.4410418,,,APPROXIMATE,
210,Shipwreck Cove Melbourne Aquarium Victoria AUSTRALIA,Shipwreck Cove,Victoria,AUSTRALIA,-37.8206295,144.9582175,Australia,"King Street corner, Flinders St, Melbourne VIC 3000, Australia",GEOMETRIC_CENTER,Shipwreck Cove
211,Broughton Island New South Wales AUSTRALIA,Broughton Island,New South Wales,AUSTRALIA,-32.6157855,152.3139827,,,APPROXIMATE,
212,Wurtulla Queensland AUSTRALIA,Wurtulla,Queensland,AUSTRALIA,-26.757,153.126,4575,"Wurtulla QLD 4575, Australia",APPROXIMATE,
214,Redhead Beach New South Wales AUSTRALIA,Redhead Beach,New South Wales,AUSTRALIA,-33.0204805,151.7091512,,,APPROXIMATE,
215,North Avoca Beach New South Wales AUSTRALIA,North Avoca Beach,New South Wales,AUSTRALIA,-33.4608015,151.4379276,,,APPROXIMATE,
216,Duranbah Queensland AUSTRALIA,Duranbah,Queensland,AUSTRALIA,-28.316667,153.533333,2487,"Duranbah NSW 2487, Australia",APPROXIMATE,
217,Angourie New South Wales AUSTRALIA,Angourie,New South Wales,AUSTRALIA,-29.479167,153.359444,2464,"Angourie NSW 2464, Australia",APPROXIMATE,
218,Maroubra New South Wales AUSTRALIA,Maroubra,New South Wales,AUSTRALIA,-33.9495,151.2437,2035,"Maroubra NSW 2035, Australia",APPROXIMATE,
219,Bushy Ilet Queensland AUSTRALIA,Bushy Ilet,Queensland,AUSTRALIA,-20.9539613,150.0725668,4805,"Bushy Islet, Queensland 4805, Australia",APPROXIMATE,
220,Broken Head New South Wales AUSTRALIA,Broken Head,New South Wales,AUSTRALIA,-28.7264578,153.5983166,,,APPROXIMATE,
221,Peregian Queensland AUSTRALIA,Peregian,Queensland,AUSTRALIA,-26.480556,153.095556,,,APPROXIMATE,
223,Elwood Beach Victoria AUSTRALIA,Elwood Beach,Victoria,AUSTRALIA,-37.8902265,144.9845562,,,APPROXIMATE,Elwood Beach
224,Cottesloe Beach Western Australia AUSTRALIA,Cottesloe Beach,Western Australia,AUSTRALIA,-31.9938622,115.7510477,,,APPROXIMATE,
225,Bunker Bay Western Australia AUSTRALIA,Bunker Bay,Western Australia,AUSTRALIA,-33.5426804,115.0391851,,,APPROXIMATE,
226,Fantome Island Queensland AUSTRALIA,Fantome Island,Queensland,AUSTRALIA,-18.6932861,146.5196111,4816,"Fantome Island, Palm Island QLD 4816, Australia",APPROXIMATE,
227,Red Bluffs Western Australia AUSTRALIA,Red Bluffs,Western Australia,AUSTRALIA,-18.8,126.4666667,Australia,"Red Bluffs, Mueller Ranges WA 6770, Australia",APPROXIMATE,
229,Jimmys Beach Port Stephens New South Wales AUSTRALIA,Jimmys Beach,New South Wales,AUSTRALIA,-32.6790132,152.1762756,,,APPROXIMATE,
230,Tallow Beach Byron Bay New South Wales AUSTRALIA,Tallow Beach,New South Wales,AUSTRALIA,-28.6524251,153.6279337,Australia,"Tallow Beach, Byron Bay NSW 2481, Australia",APPROXIMATE,
231,Between Queensland AUSTRALIA,Between,Queensland,AUSTRALIA,-20.9175738,142.7027956,,,APPROXIMATE,
232,Off Perforated Island near Coffin Bay South Australia AUSTRALIA,Off Perforated Island near Coffin Bay,South Australia,AUSTRALIA,-34.726845,135.1582224,,,APPROXIMATE,
233,Sunshine Beach Queensland AUSTRALIA,Sunshine Beach,Queensland,AUSTRALIA,-26.407,153.105,4567,"Sunshine Beach QLD 4567, Australia",APPROXIMATE,
235,Cudgen Creek New South Wales AUSTRALIA,Cudgen Creek,New South Wales,AUSTRALIA,-28.2765787,153.5730286,2487,"Cudgen Creek, New South Wales 2487, Australia",APPROXIMATE,
236,Busselton Western Australia AUSTRALIA,Busselton,Western Australia,AUSTRALIA,-33.6531584,115.3454892,6280,"Busselton WA 6280, Australia",APPROXIMATE,
237,Native Dog Beach Western Australia AUSTRALIA,Native Dog Beach,Western Australia,AUSTRALIA,-34.450121,119.3560222,Australia,"Native Dog Beach, Bremer Bay WA 6338, Australia",APPROXIMATE,
238,Between Carnac and Garden Islands Western Australia AUSTRALIA,Between Carnac and Garden Islands,Western Australia,AUSTRALIA,-32.2043254,115.6776274,Australia,"Garden Island, WA 6168, Australia",APPROXIMATE,
239,Off Garden Island Western Australia AUSTRALIA,Off Garden Island,Western Australia,AUSTRALIA,-32.2043254,115.6776274,Australia,"Garden Island, WA 6168, Australia",APPROXIMATE,
240,Cheynes Beach Western Australia AUSTRALIA,Cheynes Beach,Western Australia,AUSTRALIA,-34.88414,118.404629,Western Australia,"12 Bald Island Road, Cheynes WA 6328, Australia",ROOFTOP,
241,Wedge Island Western Australia AUSTRALIA,Wedge Island,Western Australia,AUSTRALIA,-30.8277891,115.1879896,,,APPROXIMATE,
242,Mullaway Headland New South Wales AUSTRALIA,Mullaway Headland,New South Wales,AUSTRALIA,-30.0806073,153.1958504,2456,"Mullaway NSW 2456, Australia",APPROXIMATE,
243,Frasers Reef New South Wales AUSTRALIA,Fraser's Reef,New South Wales,AUSTRALIA,-31.2532183,146.921099,,,APPROXIMATE,
244,Cowaramup Bay Western Australia AUSTRALIA,Cowaramup Bay,Western Australia,AUSTRALIA,-33.8606025,114.9857991,,,APPROXIMATE,
245,Three Mile Creek Townsville Queensland AUSTRALIA,Three Mile Creek,Queensland,AUSTRALIA,-19.208941,146.7684223,,,APPROXIMATE,
246,Crescent Head New South Wales AUSTRALIA,Crescent Head,New South Wales,AUSTRALIA,-31.1861501,152.9132368,2440,"Crescent Head NSW 2440, Australia",APPROXIMATE,
247,Conspicuous Beach near Walpole Western Australia AUSTRALIA,Conspicuous Beach,Western Australia,AUSTRALIA,-35.0169764,116.861579,Australia,"Conspicuous Beach Rd, Nornalup WA 6333, Australia",GEOMETRIC_CENTER,
248,Point Plomer New South Wales AUSTRALIA,Point Plomer,New South Wales,AUSTRALIA,-31.315232,152.9770411,,,APPROXIMATE,
249,Dent Island Whitsundays Queensland AUSTRALIA,Dent Island,Queensland,AUSTRALIA,-20.3496288,148.9320143,Australia,"Dent Island, Whitsundays QLD, Australia",APPROXIMATE,
250,Mona Vale Beach Sydney New South Wales AUSTRALIA,Mona Vale Beach,New South Wales,AUSTRALIA,-33.6795811,151.3135485,Australia,"Mona Vale Beach, Mona Vale NSW 2103, Australia",APPROXIMATE,
251,Turners Beach New South Wales AUSTRALIA,Turners' Beach,New South Wales,AUSTRALIA,-29.4304387,153.3629052,Australia,"Turners Beach, Yamba NSW 2464, Australia",APPROXIMATE,
252,Archies Beach Queensland AUSTRALIA,Archie's Beach,Queensland,AUSTRALIA,-20.9175738,142.7027956,,,APPROXIMATE,
253,Geelong Victoria AUSTRALIA,Geelong,Victoria,AUSTRALIA,-38.1499181,144.3617186,3220,"Geelong VIC 3220, Australia",APPROXIMATE,Geelong
255,Mudjimba Island Queensland AUSTRALIA,Mudjimba Island,Queensland,AUSTRALIA,-26.6146347,153.1144871,,,APPROXIMATE,
256,Lamont Reef Queensland AUSTRALIA,Lamont Reef,Queensland,AUSTRALIA,-23.6013947,152.0308565,4805,"Lamont Reef, Queensland 4805, Australia",APPROXIMATE,
257,Coffee Head New South Wales AUSTRALIA,Coffee Head,New South Wales,AUSTRALIA,-33.8594282,151.2777455,New South Wales,"34 New South Head Rd, Vaucluse NSW 2030, Australia",ROOFTOP,
258,Hawks Nest Beach New South Wales AUSTRALIA,Hawks Nest Beach,New South Wales,AUSTRALIA,-32.6742413,152.1858925,Australia,"Bennetts Beach, Hawks Nest NSW 2324, Australia",APPROXIMATE,
259,Second Valley South Australia AUSTRALIA,Second Valley,South Australia,AUSTRALIA,-35.5367772,138.2322002,5204,"Second Valley SA 5204, Australia",APPROXIMATE,
260,Portland Victoria AUSTRALIA,Portland,Victoria,AUSTRALIA,-38.360895,141.6041155,3305,"Portland VIC 3305, Australia",APPROXIMATE,Portland
261,Lennox Heads New South Wales AUSTRALIA,Lennox Heads,New South Wales,AUSTRALIA,-28.8,153.583333,2478,"Lennox Head NSW 2478, Australia",APPROXIMATE,
264,Fingal Bay New South Wales AUSTRALIA,Fingal Bay,New South Wales,AUSTRALIA,-32.750155,152.163187,2315,"Fingal Bay NSW 2315, Australia",APPROXIMATE,
265,Blue Bay New South Wales AUSTRALIA,Blue Bay,New South Wales,AUSTRALIA,-33.353,151.501,2261,"Blue Bay NSW 2261, Australia",APPROXIMATE,
266,South Broulee New South Wales AUSTRALIA,South Broulee,New South Wales,AUSTRALIA,-35.8454284,150.1694166,2537,"Broulee NSW 2537, Australia",APPROXIMATE,
267,Batemans Bay New South Wales AUSTRALIA,Bateman's Bay,New South Wales,AUSTRALIA,-35.7143871,150.1794707,2536,"Batemans Bay NSW 2536, Australia",APPROXIMATE,
268,The Natural Jetty Rottnest Island Western Australia AUSTRALIA,The Natural Jetty,Western Australia,AUSTRALIA,-32.0063677,115.5073002,6161,"Rottnest Island WA 6161, Australia",APPROXIMATE,
269,Avalon New South Wales AUSTRALIA,Avalon,New South Wales,AUSTRALIA,-33.6302836,151.3297698,2107,"Avalon Beach NSW 2107, Australia",APPROXIMATE,
270,Batt Reef Queensland AUSTRALIA,Batt Reef,Queensland,AUSTRALIA,-16.4159528,145.7710071,4805,"Batt Reef, Queensland 4805, Australia",APPROXIMATE,
272,Bondi Beach Sydney New South Wales AUSTRALIA,Bondi Beach,New South Wales,AUSTRALIA,-33.8914755,151.2766845,Australia,"Bondi Beach, NSW 2026, Australia",APPROXIMATE,
273,Garden Point Woolloomooloo Sydney Harbour New South Wales AUSTRALIA,Garden Point,New South Wales,AUSTRALIA,-33.8641859,151.2165708,New South Wales,"Royal Botanic Gardens, Mrs Macquaries Rd, Sydney NSW 2000, Australia",GEOMETRIC_CENTER,
274,Cellito Beach New South Wales AUSTRALIA,Cellito Beach,New South Wales,AUSTRALIA,-32.3789104,152.529459,New South Wales,"LOT 7167 Sandbar Rd, Sandbar NSW 2428, Australia",ROOFTOP,
275,Sandon New South Wales AUSTRALIA,Sandon,New South Wales,AUSTRALIA,-29.6893627,153.3130678,2463,"Sandon NSW 2463, Australia",APPROXIMATE,
276,Surf Beach Batemans Bay New South Wales AUSTRALIA,Surf Beach,New South Wales,AUSTRALIA,-35.7600051,150.2052861,2536,"Surf Beach NSW 2536, Australia",APPROXIMATE,
277,Off Tower Hill Victoria AUSTRALIA,Off Tower Hill,Victoria,AUSTRALIA,-38.3332266,142.3537074,3283,"Tower Hill VIC 3283, Australia",APPROXIMATE,Off Tower Hill
278,Windang Lake Illawara New South Wales AUSTRALIA,Windang,New South Wales,AUSTRALIA,-34.5273709,150.8740205,2528,"Windang NSW 2528, Australia",APPROXIMATE,
279,Binalong Bay Tasmania AUSTRALIA,Binalong Bay,Tasmania,AUSTRALIA,-41.2491264,148.2928957,7216,"Binalong Bay TAS 7216, Australia",APPROXIMATE,
280,Fingal Beach New South Wales AUSTRALIA,Fingal Beach,New South Wales,AUSTRALIA,-28.2,153.5667,2487,"Fingal Head NSW 2487, Australia",APPROXIMATE,
281,Port Kennedy Beach Western Australia AUSTRALIA,Port Kennedy Beach,Western Australia,AUSTRALIA,-32.3522464,115.7422946,6172,"Port Kennedy WA 6172, Australia",GEOMETRIC_CENTER,
282,near Schouten Island Tasmania AUSTRALIA,near Schouten Island,Tasmania,AUSTRALIA,-42.317857,148.281927,7215,"Schouten Island, Tasmania 7215, Australia",APPROXIMATE,
283,Seal Rocks New South Wales AUSTRALIA,Seal Rocks,New South Wales,AUSTRALIA,-32.4353409,152.525707,2423,"Seal Rocks NSW 2423, Australia",APPROXIMATE,
284,Long Reef north of Sydney New South Wales AUSTRALIA,Long Reef,New South Wales,AUSTRALIA,-33.7460834,151.3040716,,,APPROXIMATE,
286,Mowarry Point New South Wales AUSTRALIA,Mowarry Point,New South Wales,AUSTRALIA,-37.1406048,150.0047629,,,APPROXIMATE,
287,North Haven South Australia AUSTRALIA,North Haven,South Australia,AUSTRALIA,-34.7864711,138.4937213,5018,"North Haven SA 5018, Australia",APPROXIMATE,
288,Oceanworld Manley New South Wales AUSTRALIA,Oceanworld,New South Wales,AUSTRALIA,-33.795355,151.285014,New South Wales,"3 Pittwater Rd, Manly NSW 2095, Australia",ROOFTOP,
290,Clarks Beach Byron Bay New South Wales AUSTRALIA,Clarks Beach,New South Wales,AUSTRALIA,-28.6396907,153.6272755,Australia,"Clarkes Beach, Byron Bay NSW 2481, Australia",APPROXIMATE,
292,Levys Beach Victoria AUSTRALIA,Levys Beach,Victoria,AUSTRALIA,-37.4713077,144.7851531,,,APPROXIMATE,Levys Beach
293,Albany Western Australia AUSTRALIA,Albany,Western Australia,AUSTRALIA,-35.0269344,117.8837206,6330,"Albany WA 6330, Australia",APPROXIMATE,
295,Duranbah Greenmount Beach Queensland AUSTRALIA,Duranbah,Queensland,AUSTRALIA,-28.1675,153.5519444,New South Wales,"LOT 448 Coral St, Tweed Heads NSW 2485, Australia",ROOFTOP,
297,Horseshoe Bay New South Wales AUSTRALIA,Horseshoe Bay,New South Wales,AUSTRALIA,-36.4058391,150.075097,,,APPROXIMATE,
298,200 km east of Coolangatta Queensland AUSTRALIA,200 km east of Coolangatta,Queensland,AUSTRALIA,-28.166667,153.533333,4225,"Coolangatta QLD 4225, Australia",APPROXIMATE,
299,Jimmys Beach New South Wales AUSTRALIA,Jimmy's Beach,New South Wales,AUSTRALIA,-32.6790132,152.1762756,,,APPROXIMATE,
300,South Stradbroke Island Queensland AUSTRALIA,South Stradbroke Island,Queensland,AUSTRALIA,-27.8335086,153.4213208,,,APPROXIMATE,
301,Bondi New South Wales AUSTRALIA,Bondi,New South Wales,AUSTRALIA,-33.89195,151.26099,2026,"Bondi NSW 2026, Australia",APPROXIMATE,
302,In a tidal creek 5 km from Wickham Western Australia AUSTRALIA,In a tidal creek 5 km from Wickham,Western Australia,AUSTRALIA,-20.6731994,117.147269,6720,"Wickham WA 6720, Australia",APPROXIMATE,
304,Byron Bay New South Wales AUSTRALIA,Byron Bay,New South Wales,AUSTRALIA,-28.6473671,153.601977,2481,"Byron Bay NSW 2481, Australia",APPROXIMATE,
305,Holmes Reef Queensland AUSTRALIA,Holmes Reef,Queensland,AUSTRALIA,-10.6005556,142.2313889,Australia,"Holmes Reef, Horn QLD 4875, Australia",APPROXIMATE,
306,Shelly Beach Crescent Head New South Wales AUSTRALIA,Shelly Beach,New South Wales,AUSTRALIA,-33.3699595,151.4858695,2261,"Shelly Beach NSW 2261, Australia",APPROXIMATE,
307,Warra Beach Coral Bay Western Australia AUSTRALIA,Warra Beach,Western Australia,AUSTRALIA,-23.1438889,113.7688889,Western Australia,"1 Robinson St, Coral Bay WA 6701, Australia",ROOFTOP,
308,Warrnambool Victoria AUSTRALIA,Warrnambool,Victoria,AUSTRALIA,-38.3686779,142.4982086,,,APPROXIMATE,Warrnambool
309,Kingscliff Beach New South Wales AUSTRALIA,Kingscliff Beach,New South Wales,AUSTRALIA,-28.251915,153.574525,2487,"Kingscliff Beach, New South Wales 2487, Australia",APPROXIMATE,
310,Mornington Island Gulf of Carpentaria Queensland AUSTRALIA,Mornington Island,Queensland,AUSTRALIA,-16.5174872,139.4059435,,,APPROXIMATE,
311,South Golden Beach New South Wales AUSTRALIA,South Golden Beach,New South Wales,AUSTRALIA,-28.4981216,153.5470945,2483,"South Golden Beach NSW 2483, Australia",APPROXIMATE,
312,Moore Park north of Bundaberg Queensland AUSTRALIA,Moore Park,Queensland,AUSTRALIA,-24.8504899,152.3506485,4670,"Bundaberg North QLD 4670, Australia",APPROXIMATE,
314,Cape Howe New South Wales AUSTRALIA,Cape Howe,New South Wales,AUSTRALIA,-37.5021775,149.9781828,,,APPROXIMATE,
315,Brunswick Heads New South Wales AUSTRALIA,Brunswick Heads,New South Wales,AUSTRALIA,-28.5557919,153.5436394,2483,"Brunswick Heads NSW 2483, Australia",APPROXIMATE,
316,Sandbar Beach New South Wales AUSTRALIA,Sandbar Beach,New South Wales,AUSTRALIA,-32.387195,152.5226878,2428,"Sandbar NSW 2428, Australia",GEOMETRIC_CENTER,
317,Winki Pop Bells Beach Victoria AUSTRALIA,Winki Pop,Victoria,AUSTRALIA,-38.3680831,144.2849552,Victoria,"90 Bells Beach Rd, Bells Beach VIC 3228, Australia",ROOFTOP,Winki Pop
318,Wharton Beach Western Australia AUSTRALIA,Wharton Beach,Western Australia,AUSTRALIA,-33.9385415,122.5434147,6450,"Wharton Beach, Western Australia 6450, Australia",APPROXIMATE,
319,Great Barrier Reef Queensland AUSTRALIA,Great Barrier Reef,Queensland,AUSTRALIA,-18.2870668,147.6991918,,,APPROXIMATE,
320,Pennington Bay Kangaroo Island South Australia AUSTRALIA,Pennington Bay,South Australia,AUSTRALIA,-35.8479736,137.7508609,Australia,"Pennington Bay Rd, Pelican Lagoon SA 5222, Australia",GEOMETRIC_CENTER,
321,Waitpinga South Australia AUSTRALIA,Waitpinga,South Australia,AUSTRALIA,-35.5996512,138.4955961,,,APPROXIMATE,
322,Moffat Beach Caloundra Queensland AUSTRALIA,Moffat Beach,Queensland,AUSTRALIA,-26.791,153.139,4551,"Moffat Beach QLD 4551, Australia",APPROXIMATE,
323,Newcastle Beach New South Wales AUSTRALIA,Newcastle Beach,New South Wales,AUSTRALIA,-32.9310039,151.7857155,,,APPROXIMATE,
324,Bondi Sydney New South Wales AUSTRALIA,Bondi,New South Wales,AUSTRALIA,-33.89195,151.26099,2026,"Bondi NSW 2026, Australia",APPROXIMATE,
325,Golden Beach Caloundra Queensland AUSTRALIA,Golden Beach,Queensland,AUSTRALIA,-26.799,153.133,4551,"Caloundra QLD 4551, Australia",APPROXIMATE,
326,Point Vernon Hervey Bay Queensland AUSTRALIA,Point Vernon,Queensland,AUSTRALIA,-25.2571241,152.8176466,4655,"Point Vernon QLD 4655, Australia",APPROXIMATE,
327,Brighton Beach Adelaide South Australia AUSTRALIA,Brighton Beach,South Australia,AUSTRALIA,-35.0244116,138.5171298,South Australia,"179 Esplanade, Brighton SA 5048, Australia",ROOFTOP,
328,Off City Beach Perth Western Australia AUSTRALIA,Off City Beach,Western Australia,AUSTRALIA,-31.9339651,115.7642086,6015,"City Beach WA 6015, Australia",APPROXIMATE,
329,Amity Point North Stradbroke Island Queensland AUSTRALIA,Amity Point,Queensland,AUSTRALIA,-27.3972508,153.4537599,4183,"Amity Point QLD 4183, Australia",APPROXIMATE,
330,St Crispin Reef Queensland AUSTRALIA,St. Crispin Reef,Queensland,AUSTRALIA,-16.1014387,145.8381246,4805,"St Crispin Reef, Queensland 4805, Australia",APPROXIMATE,
331,Middle Beach 40 km north of Adelaide South Australia AUSTRALIA,Middle Beach,South Australia,AUSTRALIA,-34.5795185,138.4821124,5501,"Middle Beach SA 5501, Australia",APPROXIMATE,
332,6 km off Collendina south of Melbourne Victoria AUSTRALIA,6 km off Collendina,Victoria,AUSTRALIA,-37.835,144.96,3205,"South Melbourne VIC 3205, Australia",APPROXIMATE,6 km off Collendina
334,Arakoons Little Bay New South Wales AUSTRALIA,Arakoon's Little Bay,New South Wales,AUSTRALIA,-33.98054,151.24301,2036,"Little Bay NSW 2036, Australia",APPROXIMATE,
335,Kangaroo Island South Australia AUSTRALIA,Kangaroo Island,South Australia,AUSTRALIA,-35.7752426,137.2142417,,,APPROXIMATE,
336,Scarborough Beach Perth Western Australia AUSTRALIA,Scarborough Beach,Western Australia,AUSTRALIA,-31.8935181,115.7548947,,,APPROXIMATE,
337,Park Beach Coffs Harbour New South Wales AUSTRALIA,Park Beach,New South Wales,AUSTRALIA,-30.2896259,153.1185548,Australia,"Park Beach, Coffs Harbour NSW 2450, Australia",APPROXIMATE,
338,Fishery Bay Eyre Peninsula South Australia AUSTRALIA,Fishery Bay,South Australia,AUSTRALIA,-34.9141667,135.6861111,,,APPROXIMATE,
339,Glenelg South Australia AUSTRALIA,Glenelg,South Australia,AUSTRALIA,-34.982,138.516,5045,"Glenelg SA 5045, Australia",APPROXIMATE,
340,50 km east of Townsville Queensland AUSTRALIA,50 km east of Townsville,Queensland,AUSTRALIA,-19.2589635,146.8169483,4810,"Townsville QLD 4810, Australia",APPROXIMATE,
341,Bermagui New South Wales AUSTRALIA,Bermagui,New South Wales,AUSTRALIA,-36.4433701,150.061362,2546,"Bermagui NSW 2546, Australia",APPROXIMATE,
342,Crookhaven New South Wales AUSTRALIA,Crookhaven,New South Wales,AUSTRALIA,-34.9211517,150.7225905,2540,"Crookhaven River, New South Wales 2540, Australia",APPROXIMATE,
343,Bronte Beach New South Wales AUSTRALIA,Bronte Beach,New South Wales,AUSTRALIA,-33.90532,151.26069,2024,"Bronte NSW 2024, Australia",APPROXIMATE,
344,Wreck Point Abrolhos Islands Western Australia AUSTRALIA,Wreck Point,Western Australia,AUSTRALIA,-28.3001002,113.5951698,Australia,"North Island, Houtman Abrolhos WA 6530, Australia",APPROXIMATE,
345,Brisbane River Queensland AUSTRALIA,Brisbane River,Queensland,AUSTRALIA,-26.8951068,152.318608,,,APPROXIMATE,
346,Port Phillip Bay Victoria AUSTRALIA,Port Phillip Bay,Victoria,AUSTRALIA,-38.173206,144.8731219,,,APPROXIMATE,Port Phillip Bay
347,Blairgowrie Victoria AUSTRALIA,Blairgowrie,Victoria,AUSTRALIA,-38.36,144.769,3942,"Blairgowrie VIC 3942, Australia",APPROXIMATE,Blairgowrie
348,West Beach Adelaide South Australia AUSTRALIA,West Beach,South Australia,AUSTRALIA,-34.945278,138.50375,,,APPROXIMATE,
349,Opal Reef Queensland AUSTRALIA,Opal Reef,Queensland,AUSTRALIA,-16.2104561,145.881327,,,APPROXIMATE,
350,Stockton Beach New South Wales AUSTRALIA,Stockton Beach,New South Wales,AUSTRALIA,-32.8054122,151.9608991,,,APPROXIMATE,
353,7 km off Trigg surf beach Perth Western Australia AUSTRALIA,7 km off Trigg surf beach,Western Australia,AUSTRALIA,-31.8744999,115.7531233,6029,"Trigg WA 6029, Australia",APPROXIMATE,
354,Lefthanders Beach Margaret River Western Australia AUSTRALIA,Lefthanders Beach,Western Australia,AUSTRALIA,-33.8752851,114.9861132,Australia,"Lefthanders Rd, Gracetown WA 6284, Australia",GEOMETRIC_CENTER,
357,Latitude Reef near Forster New South Wales AUSTRALIA,Latitude Reef,New South Wales,AUSTRALIA,-32.180556,152.511667,2428,"Forster NSW 2428, Australia",APPROXIMATE,
358,5 nm off Cervantes Western Australia AUSTRALIA,5 nm off Cervantes,Western Australia,AUSTRALIA,34.5199402,-105.8700901,,,APPROXIMATE,
359,Taree Old Bar Beach New South Wales AUSTRALIA,Taree,New South Wales,AUSTRALIA,-31.966667,152.583333,2430,"Old Bar NSW 2430, Australia",APPROXIMATE,
360,Fidos Reef 300 m east of Cook Island Cook Island is 2 miles from Tweed Heads Gold Coast Queensland AUSTRALIA,Fido's Reef,Queensland,AUSTRALIA,-28.1786656,153.5370011,,,APPROXIMATE,
361,Caves Beach New South Wales AUSTRALIA,Caves Beach,New South Wales,AUSTRALIA,-33.1063425,151.6450391,2281,"Caves Beach NSW 2281, Australia",APPROXIMATE,
362,Binningup Western Australia AUSTRALIA,Binningup,Western Australia,AUSTRALIA,-33.1357694,115.720616,6233,"Binningup WA 6233, Australia",APPROXIMATE,
363,Bushrangers Pass at Bass Point New South Wales AUSTRALIA,Bushrangers Pass at Bass Point,New South Wales,AUSTRALIA,-34.5973075,150.8997956,Australia,"Bushrangers Bay, Bass Point Tourist Rd, Shell Cove NSW 2529, Australia",GEOMETRIC_CENTER,
364,Redgate Beach Western Australia AUSTRALIA,Redgate Beach,Western Australia,AUSTRALIA,-34.0391747,114.998537,Australia,"Redgate Rd, Redgate WA 6286, Australia",GEOMETRIC_CENTER,
365,Collendina Beach east of Ocean Grove Victoria AUSTRALIA,Collendina Beach east of Ocean Grove,Victoria,AUSTRALIA,-38.271434,144.559141,3226,"177 Bonnyvale Rd., Ocean Grove VIC 3226, Australia",GEOMETRIC_CENTER,Collendina Beach east of Ocean Grove
366,Perth? Margaret River District Western Australia AUSTRALIA,Perth? (Margaret River District),Western Australia,AUSTRALIA,-33.9610465,115.0767388,6285,"Margaret River WA 6285, Australia",APPROXIMATE,
368,Seal Rocks north of Newcastle New South Wales AUSTRALIA,Seal Rocks,New South Wales,AUSTRALIA,-32.4353409,152.525707,2423,"Seal Rocks NSW 2423, Australia",APPROXIMATE,
369,Lighthouse Beach Seal Rocks New South Wales AUSTRALIA,Lighthouse Beach,New South Wales,AUSTRALIA,-32.4436471,152.5279357,Australia,"Lighthouse Beach, Seal Rocks NSW 2423, Australia",APPROXIMATE,
370,Goolwa Beach Fleurieu Peninsula South Australia AUSTRALIA,Goolwa Beach,South Australia,AUSTRALIA,-35.5,138.5,Australia,"Fleurieu Peninsula, Inman Valley SA 5211, Australia",APPROXIMATE,
371,Coogee Bay near Sydney New South Wales AUSTRALIA,Coogee Bay,New South Wales,AUSTRALIA,-33.9197737,151.249673,Australia,"Coogee Bay Rd, Sydney NSW, Australia",GEOMETRIC_CENTER,
372,Burleigh Lake on the Gold Coast Queensland AUSTRALIA,Burleigh Lake on the Gold Coast,Queensland,AUSTRALIA,-28.0877778,153.4408333,Australia,"Burleigh Lake, Burleigh Waters QLD 4220, Australia",APPROXIMATE,
373,Left break at the ‚ÄòHot Spot‚Äô at Sheringa Beach Western Australia AUSTRALIA,Left break at the ‚ÄòHot Spot‚Äô at Sheringa Beach,Western Australia,AUSTRALIA,-33.8917653,135.1889373,Australia,"Sheringa Beach, Sheringa SA 5607, Australia",APPROXIMATE,
374,Great Barrier Reef near Upolu Bay Queensland AUSTRALIA,Great Barrier Reef (near Upolu Bay),Queensland,AUSTRALIA,-16.6722064,145.9334219,4805,"Upolu Cay, Queensland 4805, Australia",APPROXIMATE,
375,Depth of 40 m on the wreck of the St Paul off Brisbane Queensland AUSTRALIA,Depth of 40 m on the wreck of the St. Paul off Brisbane,Queensland,AUSTRALIA,44.9537029,-93.0899578,,,APPROXIMATE,
376,Golden Beach Queensland AUSTRALIA,Golden Beach,Queensland,AUSTRALIA,-26.823,153.118,4551,"Golden Beach QLD 4551, Australia",APPROXIMATE,
377,Miami Lake Queensland AUSTRALIA,Miami Lake,Queensland,AUSTRALIA,-28.0769444,153.4366667,Australia,"Miami Lake, Burleigh Waters QLD 4220, Australia",APPROXIMATE,
379,Smoky Bay near Ceduna on the Eyre Peninsula South Australia AUSTRALIA,Smoky Bay,South Australia,AUSTRALIA,-32.3734009,133.9356801,5680,"Smoky Bay SA 5680, Australia",APPROXIMATE,
380,26 nautical miles out to sea off Lake Macquarie New South Wales AUSTRALIA,26 nautical miles out to sea off Lake Macquarie,New South Wales,AUSTRALIA,-31.433333,152.9,2444,"Port Macquarie NSW 2444, Australia",APPROXIMATE,
381,Bar Beach Newcastle New South Wales AUSTRALIA,Bar Beach,New South Wales,AUSTRALIA,-32.94,151.767778,2300,"Bar Beach NSW 2300, Australia",APPROXIMATE,
383,Paramatta River near Sydney New South Wales AUSTRALIA,Paramatta River (near Sydney),New South Wales,AUSTRALIA,-33.8344427,151.0923358,,,APPROXIMATE,
384,Just north of Fingal Spit New South Wales AUSTRALIA,Just north of Fingal Spit,New South Wales,AUSTRALIA,-32.750155,152.163187,2315,"Fingal Bay NSW 2315, Australia",APPROXIMATE,
385,Collie River Western Australia AUSTRALIA,Collie River,Western Australia,AUSTRALIA,-33.3057308,115.788155,,,APPROXIMATE,
386,Honeycombs 250 km south of Perth Western Australia AUSTRALIA,Honeycombs,Western Australia,AUSTRALIA,-31.9505269,115.8604572,,,APPROXIMATE,
387,Flat Rock Beach Lennox Head New South Wales AUSTRALIA,Flat Rock Beach,New South Wales,AUSTRALIA,-28.8423626,153.6019473,2478,"Flat Rock Rd, New South Wales 2478, Australia",GEOMETRIC_CENTER,
388,Leighton Beach south of North Cottesloe Western Australia AUSTRALIA,Leighton Beach,Western Australia,AUSTRALIA,-32.028432,115.7503284,Australia,"Leighton Beach Blvd, North Fremantle WA 6159, Australia",GEOMETRIC_CENTER,
389,200 miles offshore Queensland AUSTRALIA,200 miles offshore,Queensland,AUSTRALIA,-20.9175738,142.7027956,,,APPROXIMATE,
390,Moreton Bay NE of Brisbane Queensland AUSTRALIA,Moreton Bay,Queensland,AUSTRALIA,-27.3123953,153.3446649,,,APPROXIMATE,
391,Lord Howe Island island group 440 miles northeast of Sydney New South Wales AUSTRALIA,Lord Howe Island (island group 440 miles northeast of Sydney),New South Wales,AUSTRALIA,-31.5553263,159.0821211,,,APPROXIMATE,
392,Noraville New South Wales AUSTRALIA,Noraville,New South Wales,AUSTRALIA,-33.268863,151.5559438,2263,"Noraville NSW 2263, Australia",APPROXIMATE,
394,Nambucca River Entrance New South Wales AUSTRALIA,Nambucca River Entrance,New South Wales,AUSTRALIA,-30.6419702,152.9978834,2448,"Nambucca Heads NSW 2448, Australia",APPROXIMATE,
395,Albany incident took place 200 metres from swimmers Western Australia AUSTRALIA,Albany (incident took place 200 metres from swimmers),Western Australia,AUSTRALIA,-35.0269344,117.8837206,6330,"Albany WA 6330, Australia",APPROXIMATE,
396,Broome Head New South Wales AUSTRALIA,Broome Head,New South Wales,AUSTRALIA,-29.6430001,153.3074519,2463,"Brooms Head NSW 2463, Australia",APPROXIMATE,
397,South West Rocks New South Wales AUSTRALIA,South West Rocks,New South Wales,AUSTRALIA,-30.884167,153.040278,2431,"South West Rocks NSW 2431, Australia",APPROXIMATE,
398,Adelaide South Australia AUSTRALIA,Adelaide,South Australia,AUSTRALIA,-34.9284989,138.6007456,,,APPROXIMATE,
399,Flinders Cay Queensland AUSTRALIA,Flinders Cay,Queensland,AUSTRALIA,-21.0184301,144.4342138,,,APPROXIMATE,
400,3 km off Port Victoria Yorke Peninsula South Australia AUSTRALIA,3 km off Port Victoria,South Australia,AUSTRALIA,-34.496667,137.483333,5573,"Port Victoria SA 5573, Australia",APPROXIMATE,
401,Sykes Reef Great Barrier Reef Queensland AUSTRALIA,Sykes Reef,Queensland,AUSTRALIA,-23.4395139,152.0395475,4805,"Sykes Reef, Queensland 4805, Australia",APPROXIMATE,
402,Orpheus Island Queensland AUSTRALIA,Orpheus Island,Queensland,AUSTRALIA,-18.6160685,146.4971995,Australia,"Orpheus Island, Palm Island QLD 4816, Australia",APPROXIMATE,
403,Ceduna South Australia AUSTRALIA,Ceduna,South Australia,AUSTRALIA,-32.1305851,133.6817145,5690,"Ceduna SA 5690, Australia",APPROXIMATE,
404,Cottesloe Beach Perth Western Australia AUSTRALIA,Cottesloe Beach,Western Australia,AUSTRALIA,-32.0135412,115.7634366,6012,"Mosman Park, WA 6012, Australia",APPROXIMATE,
406,Peel Island Queensland AUSTRALIA,Peel Island,Queensland,AUSTRALIA,-27.5005735,153.3476127,Australia,"Peel Island, QLD 4184, Australia",APPROXIMATE,
407,Black Point Eyre Peninsula South Australia AUSTRALIA,Black Point,South Australia,AUSTRALIA,-34.6106775,137.8773175,5571,"Black Point SA 5571, Australia",APPROXIMATE,
408,Cactus Beach near Penong South Australia AUSTRALIA,Cactus Beach near Penong,South Australia,AUSTRALIA,-32.0835003,132.982204,5690,"Cactus Beach, Penong SA 5690, Australia",APPROXIMATE,
409,Wollongong New South Wales AUSTRALIA,Wollongong,New South Wales,AUSTRALIA,-34.4278121,150.8930607,2500,"Wollongong NSW 2500, Australia",APPROXIMATE,
410,Koonya Beach Melbourne Victoria AUSTRALIA,Koonya Beach,Victoria,AUSTRALIA,-38.3632275,144.7513372,Victoria,"93 Hughes Rd, Blairgowrie VIC 3942, Australia",ROOFTOP,Koonya Beach
411,Main Beach Gold Coast Queensland AUSTRALIA,Main Beach,Queensland,AUSTRALIA,-27.963,153.426,4217,"Main Beach QLD 4217, Australia",APPROXIMATE,
412,McMasters Beach Central Coast New South Wales AUSTRALIA,McMasters Beach,New South Wales,AUSTRALIA,-33.4967169,151.4114482,2251,"Macmasters Beach NSW 2251, Australia",APPROXIMATE,
413,Parramatta River New South Wales AUSTRALIA,Parramatta River,New South Wales,AUSTRALIA,-33.8344427,151.0923358,,,APPROXIMATE,
415,Taronga Wharf Athol Bay Sydney Harbor New South Wales AUSTRALIA,Taronga Wharf,New South Wales,AUSTRALIA,-33.845791,151.239746,,,GEOMETRIC_CENTER,
416,Point Sinclair Cactus Beach near Penong South Australia AUSTRALIA,Point Sinclair,South Australia,AUSTRALIA,-32.0102589,132.9882194,5690,"Point Sinclair Rd, Penong SA 5690, Australia",GEOMETRIC_CENTER,
417,Hardwicke Bay Yorke Peninsula South Australia AUSTRALIA,Hardwicke Bay,South Australia,AUSTRALIA,-34.8893096,137.4583528,5575,"Hardwicke Bay SA 5575, Australia",APPROXIMATE,
418,Scotts Head New South Wales AUSTRALIA,Scotts Head,New South Wales,AUSTRALIA,-30.7492859,152.9941554,2447,"Scotts Head NSW 2447, Australia",APPROXIMATE,
419,Middleton Beach South Australia AUSTRALIA,Middleton Beach,South Australia,AUSTRALIA,-35.5115069,138.7185508,5213,"Middleton SA 5213, Australia",APPROXIMATE,
421,South Neptune Island South Australia AUSTRALIA,South Neptune Island,South Australia,AUSTRALIA,-35.3295695,136.1183528,,,APPROXIMATE,
422,Whale Beach New South Wales AUSTRALIA,Whale Beach,New South Wales,AUSTRALIA,-33.6131448,151.3304989,2107,"Whale Beach NSW 2107, Australia",APPROXIMATE,
425,Botany Bay? New South Wales AUSTRALIA,Botany Bay?,New South Wales,AUSTRALIA,-33.9930374,151.175278,,,APPROXIMATE,
427,Pincushion north of Maroochydore Beach Queensland AUSTRALIA,Pincushion,Queensland,AUSTRALIA,-26.6476538,153.1031686,,,APPROXIMATE,
428,Carrara Nerang River Queensland AUSTRALIA,Carrara,Queensland,AUSTRALIA,-28.0211196,153.3618544,4211,"Carrara QLD 4211, Australia",APPROXIMATE,
429,Whitsunday Passage Queensland AUSTRALIA,Whitsunday Passage,Queensland,AUSTRALIA,-20.3518817,148.9572514,Australia,"Hamilton Island, Whitsundays QLD, Australia",APPROXIMATE,
430,Iron Cove Sydney New South Wales AUSTRALIA,Iron Cove,New South Wales,AUSTRALIA,-33.8642907,151.1583441,,,APPROXIMATE,
431,Whitehaven Beach Whitsundays Island Queensland AUSTRALIA,Whitehaven Beach,Queensland,AUSTRALIA,-20.2824324,149.038854,Australia,"Whitehaven Beach, Whitsundays QLD 4802, Australia",APPROXIMATE,
432,Geraldton Western Australia AUSTRALIA,Geraldton,Western Australia,AUSTRALIA,-28.7796535,114.6144452,6530,"Geraldton WA 6530, Australia",APPROXIMATE,
433,Seal Rocks Phillip Island Victoria AUSTRALIA,Seal Rocks,Victoria,AUSTRALIA,-38.5258967,145.0998211,,,GEOMETRIC_CENTER,Seal Rocks
434,Coolum Beach Queensland AUSTRALIA,Coolum Beach,Queensland,AUSTRALIA,-26.5276917,153.0736329,4573,"Coolum Beach QLD 4573, Australia",APPROXIMATE,
435,Suicide Point Point Leo Victoria AUSTRALIA,Suicide Point,Victoria,AUSTRALIA,-38.421,145.075,3916,"Point Leo VIC 3916, Australia",APPROXIMATE,Suicide Point 
436,Wreck of paddle steamer Koputai 6 km off Bondi Beach New South Wales AUSTRALIA,Wreck of paddle steamer,New South Wales,AUSTRALIA,-33.8914755,151.2766845,Australia,"Bondi Beach, NSW 2026, Australia",APPROXIMATE,
437,Mona Vale New South Wales AUSTRALIA,Mona Vale,New South Wales,AUSTRALIA,-33.67596,151.30653,2103,"Mona Vale NSW 2103, Australia",APPROXIMATE,
440,Lord Howe Island New South Wales AUSTRALIA,Lord Howe Island,New South Wales,AUSTRALIA,-31.5553263,159.0821211,,,APPROXIMATE,
441,Charles Street Wharf Parramatta River New South Wales AUSTRALIA,Charles Street Wharf,New South Wales,AUSTRALIA,-33.8344427,151.0923358,,,APPROXIMATE,
442,Neds Beach Lord Howe Island New South Wales AUSTRALIA,Ned's Beach,New South Wales,AUSTRALIA,-31.5180508,159.0648906,,,APPROXIMATE,
443,Browns Inlet Broadwater Queensland AUSTRALIA,Brown's Inlet,Queensland,AUSTRALIA,-20.9175738,142.7027956,,,APPROXIMATE,
444,Mutton Bird Island Albany Western Australia AUSTRALIA,Mutton Bird Island,Western Australia,AUSTRALIA,-35.0508428,117.692983,,,APPROXIMATE,
445,Eight-mile reef off Port Kembla New South Wales AUSTRALIA,Eight-mile reef off Port Kembla,New South Wales,AUSTRALIA,-34.485392,150.8995794,2505,"Port Kembla NSW 2505, Australia",APPROXIMATE,
446,Great Keppel Island Queensland AUSTRALIA,Great Keppel Island,Queensland,AUSTRALIA,-23.1262002,150.9744162,Australia,"Kippel Islands, The Keppels QLD 4700, Australia",APPROXIMATE,
447,Pialba Hervey Bay Queensland AUSTRALIA,Pialba,Queensland,AUSTRALIA,-25.2812998,152.8294091,4655,"Pialba QLD 4655, Australia",APPROXIMATE,
448,Honeymoon Island near Hopetown Western Australia AUSTRALIA,Honeymoon Island,Western Australia,AUSTRALIA,-34.9910116,117.3450292,Australia,"Honeymoon Island, Denmark WA 6333, Australia",APPROXIMATE,
449,Bernier Island Shark Bay Western Australia AUSTRALIA,Bernier Island,Western Australia,AUSTRALIA,-24.8504267,113.1381998,,,APPROXIMATE,
450,Honeysuckle Point Eden New South Wales AUSTRALIA,Honeysuckle Point,New South Wales,AUSTRALIA,-36.9640598,149.8899148,Australia,"Honeysuckle Point, Pambula Beach NSW 2549, Australia",APPROXIMATE,
451,Clark Island Sydney Harbour New South Wales AUSTRALIA,Clark Island,New South Wales,AUSTRALIA,-33.8626215,151.241028,,,APPROXIMATE,
452,Cactus Beach South Australia AUSTRALIA,Cactus Beach,South Australia,AUSTRALIA,-32.0835003,132.982204,5690,"Cactus Beach, Penong SA 5690, Australia",APPROXIMATE,
453,Gladstone Reef Queensland AUSTRALIA,Gladstone Reef,Queensland,AUSTRALIA,-23.8397556,151.2543694,Queensland,"38 Goondoon St, Gladstone Central QLD 4680, Australia",ROOFTOP,
454,Hinchinbrook Channel Queensland Queensland AUSTRALIA,Hinchinbrook Channel,Queensland,AUSTRALIA,-18.2921606,146.2440175,4849,"Hinchinbrook QLD 4849, Australia",APPROXIMATE,
456,Katana Downs Reach Brisbane River Queensland AUSTRALIA,Katana Downs Reach,Queensland,AUSTRALIA,-27.55,152.822222,4306,"Karana Downs QLD 4306, Australia",APPROXIMATE,
457,A pearl farm in Roebuck Bay Western Australia AUSTRALIA,A pearl farm in Roebuck Bay,Western Australia,AUSTRALIA,-18.0858333,122.2830556,,,APPROXIMATE,
458,Off Rottnest Island Western Australia AUSTRALIA,Off Rottnest Island,Western Australia,AUSTRALIA,-32.0063677,115.5073002,6161,"Rottnest Island WA 6161, Australia",APPROXIMATE,
460,Tenth Island King Island Tasmania AUSTRALIA,Tenth Island (King Island),Tasmania,AUSTRALIA,-40.9422858,146.9848558,,,APPROXIMATE,
461,Barren Joey Island Tasmania AUSTRALIA,Barren Joey Island,Tasmania,AUSTRALIA,-40.9422858,146.9848558,,,APPROXIMATE,
463,Line Reef northeast of Hamilton Island Whitsundays Queensland AUSTRALIA,Line Reef,Queensland,AUSTRALIA,-19.674144,149.1746224,,,APPROXIMATE,
464,Avalon Beach New South Wales AUSTRALIA,Avalon Beach,New South Wales,AUSTRALIA,-33.6302836,151.3297698,2107,"Avalon Beach NSW 2107, Australia",APPROXIMATE,
465,North Point Beach Moreton Island Queensland AUSTRALIA,North Point Beach,Queensland,AUSTRALIA,-27.0269755,153.4514741,Australia,"North Point Sunrover Campsite, Moreton Island QLD 4025, Australia",GEOMETRIC_CENTER,
466,Lipson Cove Tumby Bay South Australia AUSTRALIA,Lipson Cove,South Australia,AUSTRALIA,-34.2592315,136.2625804,,,APPROXIMATE,
467,Point Lonsdale Victoria AUSTRALIA,Point Lonsdale,Victoria,AUSTRALIA,-38.283333,144.6,,,APPROXIMATE,Point Lonsdale
468,Clifton Beach southwest of Hobart Tasmania AUSTRALIA,Clifton Beach,Tasmania,AUSTRALIA,-42.989444,147.521667,7020,"Clifton Beach TAS 7020, Australia",APPROXIMATE,
469,Tweed Heads New South Wales AUSTRALIA,Tweed Heads,New South Wales,AUSTRALIA,-28.1786656,153.5370011,,,APPROXIMATE,
470,Backbeach Halls Head Western Australia AUSTRALIA,Backbeach,Western Australia,AUSTRALIA,-32.5293276,115.6941929,Western Australia,"59 Halls Head Parade, Halls Head WA 6210, Australia",ROOFTOP,
471,Snapper Point Aldinga Beach Adelaide South Australia AUSTRALIA,Snapper Point,South Australia,AUSTRALIA,-35.2711799,138.44391,Australia,"Snapper Point, Aldinga Beach SA 5173, Australia",APPROXIMATE,
472,On board the Japanese longline trawler Fukuya No38 100 nm northeast of Brisbane Queensland AUSTRALIA,On board the Japanese longline trawler Fukuya No.38,Queensland,AUSTRALIA,-27.4697707,153.0251235,,,APPROXIMATE,
473,Bass Point New South Wales AUSTRALIA,Bass Point,New South Wales,AUSTRALIA,-34.5959607,150.9018394,Australia,"Bass Point, Shell Cove NSW 2529, Australia",APPROXIMATE,
474,Mermaid Waters Queensland AUSTRALIA,Mermaid Waters,Queensland,AUSTRALIA,-28.047778,153.421667,4218,"Mermaid Waters QLD 4218, Australia",APPROXIMATE,
475,Scarborough Western Australia AUSTRALIA,Scarborough,Western Australia,AUSTRALIA,-31.8980316,115.7715973,6019,"Scarborough WA 6019, Australia",APPROXIMATE,
476,Pelican Banks near Gladstone Queensland AUSTRALIA,Pelican Banks near Gladstone,Queensland,AUSTRALIA,-23.7833333,151.3,Australia,"Pelican Banks, Gladstone Harbour QLD 4680, Australia",APPROXIMATE,
477,Nerang River Queensland AUSTRALIA,Nerang River,Queensland,AUSTRALIA,-28.0042318,153.3708292,,,APPROXIMATE,
479,Goolwa Beach South Australia AUSTRALIA,Goolwa Beach,South Australia,AUSTRALIA,-35.5121467,138.7618244,5214,"Goolwa Beach SA 5214, Australia",APPROXIMATE,
480,Outer Barrier Reef near Port Douglas Queensland AUSTRALIA,Outer Barrier Reef near Port Douglas,Queensland,AUSTRALIA,-16.4844197,145.4606058,Queensland,"44 Wharf St, Port Douglas QLD 4877, Australia",ROOFTOP,
482,Greenmount Beach Queensland AUSTRALIA,Greenmount Beach,Queensland,AUSTRALIA,-28.1639838,153.547601,,,APPROXIMATE,
483,Dingo Reef 80 nm off Townsville Queensland AUSTRALIA,Dingo Reef,Queensland,AUSTRALIA,-19.1503846,148.3894903,,,APPROXIMATE,
484,Fingal Beach Queensland AUSTRALIA,Fingal Beach,Queensland,AUSTRALIA,-28.2,153.5667,2487,"Fingal Head NSW 2487, Australia",APPROXIMATE,
486,Fraser Island Queensland AUSTRALIA,Fraser Island,Queensland,AUSTRALIA,-25.2398229,153.1325243,Australia,"Fraser Island, QLD 4581, Australia",APPROXIMATE,
487,Kilcunda Victoria AUSTRALIA,Kilcunda,Victoria,AUSTRALIA,-38.5498,145.4761,3995,"Kilcunda VIC 3995, Australia",APPROXIMATE,Kilcunda
489,Shelly Point Tasmania AUSTRALIA,Shelly Point,Tasmania,AUSTRALIA,-41.4350928,148.2769946,7215,"Beaumaris TAS 7215, Australia",GEOMETRIC_CENTER,
490,Surfers Point Phillip Island Victoria AUSTRALIA,Surfers Point,Victoria,AUSTRALIA,-38.5092311,145.2817885,Australia,"Surfers Point, Surf Beach VIC 3922, Australia",GEOMETRIC_CENTER,Surfers Point Phillip Island 
491,SeaWorld Theme Park Queensland AUSTRALIA,SeaWorld Theme Park,Queensland,AUSTRALIA,-27.9572417,153.4255161,Australia,"Seaworld Dr, Main Beach QLD 4217, Australia",GEOMETRIC_CENTER,
494,Waitpinga Beach near Victor Harbor Encounter Bay South Australia AUSTRALIA,Waitpinga Beach,South Australia,AUSTRALIA,-35.6040077,138.5809998,South Australia,"Lot 60 Dump Rd, Waitpinga SA 5211, Australia",ROOFTOP,
495,Near Broome in Roebuck Bay Western Australia AUSTRALIA,Near Broome in Roebuck Bay,Western Australia,AUSTRALIA,-18.0858333,122.2830556,,,APPROXIMATE,
496,Half Tide Beach Evans Head New South Wales AUSTRALIA,Half Tide Beach,New South Wales,AUSTRALIA,-29.1086171,153.4217078,2473,"Evans Head NSW 2473, Australia",APPROXIMATE,
497,Off North Keppel Island off Yeppoon Queensland AUSTRALIA,Off North Keppel Island,Queensland,AUSTRALIA,-23.0737512,150.8987392,Australia,"North Keppel Island, The Keppels QLD 4700, Australia",APPROXIMATE,
499,Phillip Island Victoria AUSTRALIA,Phillip Island,Victoria,AUSTRALIA,-38.4898703,145.2038278,,,APPROXIMATE,Phillip Island
500,Moama Beach South Australia AUSTRALIA,Moama Beach,South Australia,AUSTRALIA,-36.1214284,144.7528293,Australia,"Moama beach, Moama NSW 2731, Australia",GEOMETRIC_CENTER,
501,18 km west of Bunbury Western Australia AUSTRALIA,18 km west of Bunbury,Western Australia,AUSTRALIA,-33.3209971,115.6383482,6230,"Bunbury WA 6230, Australia",APPROXIMATE,
502,Sydney New South Wales AUSTRALIA,Sydney,New South Wales,AUSTRALIA,-33.8688197,151.2092955,,,APPROXIMATE,
503,Shoalhaven New South Wales AUSTRALIA,Shoalhaven,New South Wales,AUSTRALIA,-35.0810677,150.4892292,,,APPROXIMATE,
504,Merino Rocks Adelaide South Australia AUSTRALIA,Merino Rocks,South Australia,AUSTRALIA,-35.05,138.5166667,Australia,"Marino Rocks, Marino SA 5049, Australia",APPROXIMATE,
505,Fourth Beach  Twilgth Beach Western Australia AUSTRALIA,Fourth Beach / Twilgth Beach,Western Australia,AUSTRALIA,-33.8873923,121.8418498,,,APPROXIMATE,
507,Direction Island Cocos Islands Western Australia AUSTRALIA,Direction Island,Western Australia,AUSTRALIA,-12.1887006,96.8293902,,,GEOMETRIC_CENTER,
508,North Head Sydney Harbour New South Wales AUSTRALIA,North Head,New South Wales,AUSTRALIA,-33.8332187,151.2804258,Australia,"Sydney Heads, Watsons Bay NSW 2030, Australia",APPROXIMATE,
509,3 km west of Rottnest Island Western Australia AUSTRALIA,3 km west of Rottnest Island,Western Australia,AUSTRALIA,-32.0063677,115.5073002,6161,"Rottnest Island WA 6161, Australia",APPROXIMATE,
511,Jan Juc Beach Victoria AUSTRALIA,Jan Juc Beach,Victoria,AUSTRALIA,-38.3460923,144.3099291,,,GEOMETRIC_CENTER,Jan Juc Beach
512,Gladstone Queensland AUSTRALIA,Gladstone,Queensland,AUSTRALIA,-23.8415948,151.2497708,4680,"Gladstone Central QLD 4680, Australia",APPROXIMATE,
513,Wiseman‚Äôs Beach Peake Bay Port Lincoln South Australia AUSTRALIA,Wiseman‚Äôs Beach,South Australia,AUSTRALIA,-34.5047222,136.0533333,,,APPROXIMATE,
514,1 km off Blacks Beach Queensland AUSTRALIA,1 km off Black's Beach,Queensland,AUSTRALIA,-21.062778,149.1875,4740,"Blacks Beach QLD 4740, Australia",APPROXIMATE,
516,Derwent Island Queensland AUSTRALIA,Derwent Island,Queensland,AUSTRALIA,-20.9866702,149.7855122,4805,"Derwent Island, Queensland 4805, Australia",APPROXIMATE,
517,Dangerous Reef South Neptune Island South Australia AUSTRALIA,Dangerous Reef,South Australia,AUSTRALIA,-34.8166667,136.2291667,,,APPROXIMATE,
518,Off Lodestone Reef Great Barrier Reef north of Townsville Queensland AUSTRALIA,Off Lodestone Reef,Queensland,AUSTRALIA,-18.6894696,147.1049521,4805,"Lodestone Reef, Queensland 4805, Australia",APPROXIMATE,
523,Green Island Queensland AUSTRALIA,Green Island,Queensland,AUSTRALIA,-16.7597228,145.9738016,Australia,"Green Island, QLD 4871, Australia",APPROXIMATE,
524,Leighton Beach north of Freemantle Western Australia AUSTRALIA,Leighton Beach,Western Australia,AUSTRALIA,-32.0245056,115.7503081,,,APPROXIMATE,
525,Parkers Point Rottnest Island Western Australia AUSTRALIA,Parker's Point,Western Australia,AUSTRALIA,-32.014821,115.5312016,Australia,"Parker Point Rd, Rottnest Island WA 6161, Australia",GEOMETRIC_CENTER,
527,Lancelin Western Australia AUSTRALIA,Lancelin,Western Australia,AUSTRALIA,-31.0454098,115.3532775,6044,"Lancelin WA 6044, Australia",APPROXIMATE,
529,Bribie Island Queensland AUSTRALIA,Bribie Island,Queensland,AUSTRALIA,-26.9861003,153.1325243,,,APPROXIMATE,
530,Cape Pillar Storm Bay Tasmania AUSTRALIA,Cape Pillar,Tasmania,AUSTRALIA,-43.17,147.44,,,APPROXIMATE,
531,Beechford Tasmania AUSTRALIA,Beechford,Tasmania,AUSTRALIA,-41.0427253,146.9720846,7252,"Beechford TAS 7252, Australia",APPROXIMATE,
532,Cactus Beach near Ceduna South Australia AUSTRALIA,Cactus Beach,South Australia,AUSTRALIA,-32.0835003,132.982204,5690,"Cactus Beach, Penong SA 5690, Australia",APPROXIMATE,
533,Buddina Beach south of Noosa Queensland AUSTRALIA,Buddina Beach,Queensland,AUSTRALIA,-26.3864103,153.0923901,,,GEOMETRIC_CENTER,
534,Southport Queensland AUSTRALIA,Southport,Queensland,AUSTRALIA,-27.973794,153.4183144,4215,"Southport QLD 4215, Australia",APPROXIMATE,
535,Tallebudgera Queensland AUSTRALIA,Tallebudgera,Queensland,AUSTRALIA,-28.148889,153.418056,4228,"Tallebudgera QLD 4228, Australia",APPROXIMATE,
536,Near Moreton Island in Moreton Bay Queensland AUSTRALIA,Near Moreton Island in Moreton Bay,Queensland,AUSTRALIA,-27.0873207,153.4154233,,,APPROXIMATE,
539,Kingscliffe Beach south of Tweed Heads New South Wales AUSTRALIA,Kingscliffe Beach,New South Wales,AUSTRALIA,-28.2732826,153.5811643,Australia,"South Kingscliff Beach, Kingscliff NSW 2487, Australia",APPROXIMATE,
540,Sorrento Back Beach Victoria AUSTRALIA,Sorrento Back Beach,Victoria,AUSTRALIA,-38.346817,144.7283322,,,APPROXIMATE,Sorrento Back Beach
541,Caloundra Queensland AUSTRALIA,Caloundra,Queensland,AUSTRALIA,-26.799,153.133,4551,"Caloundra QLD 4551, Australia",APPROXIMATE,
542,Southport Bar Queensland AUSTRALIA,Southport Bar,Queensland,AUSTRALIA,-27.9674697,153.4163769,Australia,"SHOP 1035, LEVEL 1 AUSTRALIA FAIR SHOPPING CENTRE, Marine Parade, Southport QLD 4215, Australia",GEOMETRIC_CENTER,
543,Point Lowly north of Whyalla South Australia AUSTRALIA,Point Lowly,South Australia,AUSTRALIA,-32.999444,137.785278,5601,"Point Lowly SA 5601, Australia",APPROXIMATE,
544,Off Stradbroke Island Queensland AUSTRALIA,Off Stradbroke Island,Queensland,AUSTRALIA,-27.5323174,153.4626077,4183,"North Stradbroke Island, Queensland 4183, Australia",APPROXIMATE,
545,Harvey Bay Queensland AUSTRALIA,Harvey Bay,Queensland,AUSTRALIA,-25.2881539,152.7676633,4655,"Hervey Bay QLD 4655, Australia",APPROXIMATE,
547,Porpoise Pool Tweed Heads New South Wales AUSTRALIA,Porpoise Pool,New South Wales,AUSTRALIA,-28.170037,153.543026,Tweed Shire Council,"17/21 Wharf St, Tweed Heads NSW 2485, Australia",ROOFTOP,
548,Queenscliff Sydney New South Wales AUSTRALIA,Queenscliff,New South Wales,AUSTRALIA,-33.7825,151.284722,2096,"Queenscliff NSW 2096, Australia",APPROXIMATE,
549,Lookout Point Queensland AUSTRALIA,Lookout Point,Queensland,AUSTRALIA,-27.4346508,153.5304523,4183,"Point Lookout QLD 4183, Australia",APPROXIMATE,
550,Lennox Head Ballina New South Wales AUSTRALIA,Lennox Head,New South Wales,AUSTRALIA,-28.8,153.583333,2478,"Lennox Head NSW 2478, Australia",APPROXIMATE,
551,Fluted Cape Bruny Island Tasmania AUSTRALIA,Fluted Cape,Tasmania,AUSTRALIA,-43.3582342,147.3630217,7150,"Fluted Cape Walk, Tasmania 7150, Australia",GEOMETRIC_CENTER,
552,Maroochydore Queensland AUSTRALIA,Maroochydore,Queensland,AUSTRALIA,-26.65,153.1,4558,"Maroochydore QLD 4558, Australia",APPROXIMATE,
553,15 km north of Lancelin north of Perth Western Australia AUSTRALIA,15 km north of Lancelin,Western Australia,AUSTRALIA,-31.0454098,115.3532775,6044,"Lancelin WA 6044, Australia",APPROXIMATE,
554,Mornington Island Queensland AUSTRALIA,Mornington Island,Queensland,AUSTRALIA,-16.5174872,139.4059435,,,APPROXIMATE,
555,Southport Aquarium Queensland AUSTRALIA,Southport Aquarium,Queensland,AUSTRALIA,-27.9600602,153.4245922,4217,"Main Beach QLD 4217, Australia",GEOMETRIC_CENTER,
556,Point Sinclair Penong South Australia AUSTRALIA,(Point Sinclair) Penong,South Australia,AUSTRALIA,-32.1065199,132.97958,5690,"Point Sinclair, Penong SA 5690, Australia",APPROXIMATE,
557,Anglesea Victoria AUSTRALIA,Anglesea,Victoria,AUSTRALIA,-38.4096639,144.1825171,3230,"Anglesea VIC 3230, Australia",APPROXIMATE,Anglesea
558,Currumbin Rock Queensland AUSTRALIA,Currumbin Rock,Queensland,AUSTRALIA,-28.1333333,153.5,,,APPROXIMATE,
559,Coffin Bay South Australia AUSTRALIA,Coffin Bay,South Australia,AUSTRALIA,-34.6235585,135.4654638,5607,"Coffin Bay SA 5607, Australia",APPROXIMATE,
560,Geographe Bay Western Australia AUSTRALIA,Geographe Bay,Western Australia,AUSTRALIA,-33.625,115.3197222,,,APPROXIMATE,
561,Junpinpin off Stradbroke Island Queensland AUSTRALIA,Junpinpin,Queensland,AUSTRALIA,-27.7311776,153.4428803,Australia,"Jumpinpin Channel, North Stradbroke Island QLD 4183, Australia",APPROXIMATE,
563,Emu Channel Western Australia AUSTRALIA,Emu Channel,Western Australia,AUSTRALIA,-27.6728168,121.6283098,,,APPROXIMATE,
564,Swan River Western Australia AUSTRALIA,Swan River,Western Australia,AUSTRALIA,-31.8962877,115.9575018,,,APPROXIMATE,
565,Gin Arm Creek Queensland AUSTRALIA,Gin Arm Creek,Queensland,AUSTRALIA,-17.563459,139.4482028,,,APPROXIMATE,
566,Palm Cove Beach Queensland AUSTRALIA,Palm Cove Beach,Queensland,AUSTRALIA,-16.744428,145.6711359,Queensland,"111 Williams Esplanade, Palm Cove QLD 4879, Australia",ROOFTOP,
567,Point Lookout Stradbroke Island Queensland AUSTRALIA,Point Lookout,Queensland,AUSTRALIA,-27.4346508,153.5304523,4183,"Point Lookout QLD 4183, Australia",APPROXIMATE,
568,Palm Island Queensland AUSTRALIA,Palm Island,Queensland,AUSTRALIA,-18.6894285,146.5392256,,,APPROXIMATE,
570,Marineland Sydney New South Wales AUSTRALIA,Marineland,New South Wales,AUSTRALIA,-33.8695997,151.2021381,New South Wales,"1-5 Wheat Rd, Sydney NSW 2000, Australia",ROOFTOP,
571,Stevens Reef Queensland AUSTRALIA,Stevens Reef,Queensland,AUSTRALIA,-20.5833333,150.0833333,,,APPROXIMATE,
572,Tabourie Beach New South Wales AUSTRALIA,Tabourie Beach,New South Wales,AUSTRALIA,-35.4172592,150.4200146,City of Shoalhaven,"Wairo Beach Holiday Park, 425 Princes Hwy, Lake Tabourie NSW 2539, Australia",ROOFTOP,
573,Tasman Island Tasmania AUSTRALIA,Tasman Island,Tasmania,AUSTRALIA,-43.2381627,148.0023939,,,APPROXIMATE,
574,Pancake Creek Queensland AUSTRALIA,Pancake Creek,Queensland,AUSTRALIA,-20.9175738,142.7027956,,,APPROXIMATE,
576,Wellington Point Queensland AUSTRALIA,Wellington Point,Queensland,AUSTRALIA,-27.487,153.239,4160,"Wellington Point QLD 4160, Australia",APPROXIMATE,
577,Wilsons Promontory Waratah Bay Victoria AUSTRALIA,Wilson's Promontory,Victoria,AUSTRALIA,-38.9333333,146.3666667,Australia,"Wilsons Promontory, VIC 3960, Australia",APPROXIMATE,Wilson's Promontory
578,Elliots Cove Tasmania AUSTRALIA,Elliot's Cove,Tasmania,AUSTRALIA,-42.98,145.56,,,APPROXIMATE,
579,Smokey Cape New South Wales AUSTRALIA,Smokey Cape,New South Wales,AUSTRALIA,-30.9237156,153.0888272,Australia,"Smoky Cape, Arakoon NSW 2431, Australia",APPROXIMATE,
583,Manly Marineland Sydney New South Wales AUSTRALIA,Manly Marineland,New South Wales,AUSTRALIA,-33.8060158,151.2947775,,,APPROXIMATE,
584,Southport South Australia AUSTRALIA,Southport,South Australia,AUSTRALIA,-35.1577032,138.4688872,Australia,"Southport Beach, Port Noarlunga SA 5167, Australia",APPROXIMATE,
586,Swan River 13 miles upstream Western Australia AUSTRALIA,Swan River,Western Australia,AUSTRALIA,-31.8962877,115.9575018,,,APPROXIMATE,
588,Broomfield Reef Queensland AUSTRALIA,Broomfield Reef,Queensland,AUSTRALIA,-23.2670335,151.9353402,4805,"Broomfield Reef, Queensland 4805, Australia",APPROXIMATE,
590,Newcastle New South Wales AUSTRALIA,Newcastle,New South Wales,AUSTRALIA,-32.9282712,151.7816802,,,APPROXIMATE,
591,Taroona Tasmania AUSTRALIA,Taroona,Tasmania,AUSTRALIA,-42.948056,147.348889,7053,"Taroona TAS 7053, Australia",APPROXIMATE,
592,Cooktown Queensland AUSTRALIA,Cooktown,Queensland,AUSTRALIA,-15.4758164,145.2470981,4895,"Cooktown QLD 4895, Australia",APPROXIMATE,
593,Beecroft Head New South Wales AUSTRALIA,Beecroft Head,New South Wales,AUSTRALIA,-35.0135426,150.8493734,Australia,"Beecroft Head, Beecroft Peninsula NSW 2540, Australia",APPROXIMATE,
594,Port MacDonnel Victoria AUSTRALIA,Port MacDonnel,Victoria,AUSTRALIA,-38.0524957,140.7001924,South Australia,"40 Meylin St, Port Macdonnell SA 5291, Australia",ROOFTOP,Port MacDonnel
595,Marineland Aquarium Manley Sydney New South Wales AUSTRALIA,Marineland Aquarium,New South Wales,AUSTRALIA,-33.795355,151.285014,New South Wales,"3 Pittwater Rd, Manly NSW 2095, Australia",ROOFTOP,
596,Thistle Island South Australia AUSTRALIA,Thistle Island,South Australia,AUSTRALIA,-35.0380953,136.1804618,,,APPROXIMATE,
597,South Coast New South Wales AUSTRALIA,South Coast,New South Wales,AUSTRALIA,-36.6806101,149.6564494,,,APPROXIMATE,
598,Stockton Bight New South Wales AUSTRALIA,Stockton Bight,New South Wales,AUSTRALIA,-32.8054122,151.9608991,,,APPROXIMATE,
600,Cape Jervis South Australia AUSTRALIA,Cape Jervis,South Australia,AUSTRALIA,-35.6061701,138.1154046,5204,"Cape Jervis SA 5204, Australia",APPROXIMATE,
602,Cheviot Beach Portsea Port Phillip Bay Victoria AUSTRALIA,Cheviot Beach,Victoria,AUSTRALIA,-38.3136027,144.6676667,3944,"Portsea VIC 3944, Australia",GEOMETRIC_CENTER,Cheviot Beach
604,Surfers Paradise Queensland AUSTRALIA,Surfer's Paradise,Queensland,AUSTRALIA,-28,153.416667,4217,"Surfers Paradise QLD 4217, Australia",APPROXIMATE,
605,Jurien Bay Western Australia AUSTRALIA,Jurien Bay,Western Australia,AUSTRALIA,-30.2938314,115.1177654,6516,"Jurien Bay WA 6516, Australia",APPROXIMATE,
606,Jervis Bay New South Wales AUSTRALIA,Jervis Bay,New South Wales,AUSTRALIA,-35.0480805,150.7446771,,,APPROXIMATE,
607,Outer Harbor South Australia AUSTRALIA,Outer Harbor,South Australia,AUSTRALIA,-34.781,138.501,,,APPROXIMATE,
609,Dover Heights Sydney New South Wales AUSTRALIA,Dover Heights,New South Wales,AUSTRALIA,-33.87185,151.27837,2030,"Dover Heights NSW 2030, Australia",APPROXIMATE,
610,Goolwa Victoria AUSTRALIA,Goolwa,Victoria,AUSTRALIA,-35.4980286,138.7783094,5214,"Goolwa SA 5214, Australia",APPROXIMATE,Goolwa
611,Piccaninny Point 10 miles from Bicheno Tasmania AUSTRALIA,Piccaninny Point,Tasmania,AUSTRALIA,-41.8522419,148.2596683,7215,"Bicheno TAS 7215, Australia",APPROXIMATE,
613,Trial Bay New South Wales AUSTRALIA,Trial Bay,New South Wales,AUSTRALIA,-30.879986,153.0576088,,,APPROXIMATE,
614,Coogee New South Wales AUSTRALIA,Coogee,New South Wales,AUSTRALIA,-33.919,151.2555,2034,"Coogee NSW 2034, Australia",APPROXIMATE,
615,Broomfield Island Queensland AUSTRALIA,Broomfield Island,Queensland,AUSTRALIA,-26.9601877,149.0840869,Australia,"Yalebone State Forest 1, Noorindoo QLD 4417, Australia",GEOMETRIC_CENTER,
616,Little Beach Reef Bremer Bay Western Australia AUSTRALIA,Little Beach Reef,Western Australia,AUSTRALIA,-34.4650904,119.0936263,Australia,"Reef Beach, Bremer Bay WA 6338, Australia",APPROXIMATE,
618,Roe Reef off Rottnest Island Western Australia AUSTRALIA,Roe Reef off Rottnest Island,Western Australia,AUSTRALIA,-31.9791667,115.5333333,,,APPROXIMATE,
620,Bellingen New South Wales AUSTRALIA,Bellingen,New South Wales,AUSTRALIA,-30.4522423,152.8979566,2454,"Bellingen NSW 2454, Australia",APPROXIMATE,
621,Botany Bay Sydney New South Wales AUSTRALIA,Botany Bay,New South Wales,AUSTRALIA,-33.9930374,151.175278,,,APPROXIMATE,
623,Coledale Beach New South Wales AUSTRALIA,Coledale Beach,New South Wales,AUSTRALIA,-34.2876337,150.9490069,Australia,"Coledale Beach, Coledale NSW 2515, Australia",APPROXIMATE,
624,Bellambi New South Wales AUSTRALIA,Bellambi,New South Wales,AUSTRALIA,-34.366667,150.916667,2518,"Bellambi NSW 2518, Australia",APPROXIMATE,
625,Woodman Point Western Australia AUSTRALIA,Woodman Point,Western Australia,AUSTRALIA,-32.129142,115.76663,City of Cockburn,"Discovery Parks - Woodman Point, 132 Cockburn Rd, Munster WA 6166, Australia",ROOFTOP,
626,Bathurst Reef Rottnest Island Western Australia AUSTRALIA,Bathurst Reef,Western Australia,AUSTRALIA,-31.9893569,115.5407453,6161,"Rottnest Island WA 6161, Australia",GEOMETRIC_CENTER,
628,Near Brisbane Queensland AUSTRALIA,Near Brisbane,Queensland,AUSTRALIA,-27.4697707,153.0251235,,,APPROXIMATE,
629,Oak Beach Queensland AUSTRALIA,Oak Beach,Queensland,AUSTRALIA,-16.591277,145.5191857,4877,"Oak Beach QLD 4877, Australia",APPROXIMATE,
630,East of Station Pier Port Melbourne Victoria AUSTRALIA,East of Station Pier,Victoria,AUSTRALIA,-37.8423661,144.9322126,Victoria,"6 Waterfront Pl, Port Melbourne VIC 3207, Australia",ROOFTOP,East of Station Pier
631,Port Jervis New South Wales AUSTRALIA,Port Jervis,New South Wales,AUSTRALIA,-35.0480805,150.7446771,,,APPROXIMATE,
632,Lady Julia Percy Island Victoria AUSTRALIA,Lady Julia Percy Island,Victoria,AUSTRALIA,-38.4160708,142.003766,,,APPROXIMATE,Lady Julia Percy Island
633,Fingal Beach near Tweed Heads Queensland AUSTRALIA,Fingal Beach,Queensland,AUSTRALIA,-28.2,153.5667,2487,"Fingal Head NSW 2487, Australia",APPROXIMATE,
634,North Solitary Island New South Wales AUSTRALIA,North Solitary Island,New South Wales,AUSTRALIA,-29.9294292,153.3914661,,,APPROXIMATE,
635,Avalon Beach near Mandurah 50 miles south of Perth Western Australia AUSTRALIA,Avalon Beach,Western Australia,AUSTRALIA,-32.5933864,115.6364088,Australia,"Westview Parade, Wannanup WA 6210, Australia",GEOMETRIC_CENTER,
636,Surfers Paradise Beach near Victor Harbour South Australia AUSTRALIA,Surfers Paradise Beach near Victor Harbour,South Australia,AUSTRALIA,-28,153.416667,4217,"Surfers Paradise QLD 4217, Australia",APPROXIMATE,
637,Brisbane Queensland AUSTRALIA,Brisbane,Queensland,AUSTRALIA,-27.4697707,153.0251235,,,APPROXIMATE,
638,Hamelin Bay Western Australia AUSTRALIA,Hamelin Bay,Western Australia,AUSTRALIA,-34.2283311,115.0559483,6288,"Hamelin Bay WA 6288, Australia",APPROXIMATE,
639,Metro coast Western Australia AUSTRALIA,Metro coast,Western Australia,AUSTRALIA,-31.7478596,115.7726817,Western Australia,"35 Kendrew Cres, Joondalup WA 6027, Australia",ROOFTOP,
640,Figtree Ledge Hervey Bay Queensland AUSTRALIA,Figtree Ledge,Queensland,AUSTRALIA,-25.2881539,152.7676633,4655,"Hervey Bay QLD 4655, Australia",APPROXIMATE,
641,Woolgoolga Coffs Harbour New South Wales AUSTRALIA,Woolgoolga,New South Wales,AUSTRALIA,-30.1130375,153.1837924,2456,"Woolgoolga NSW 2456, Australia",APPROXIMATE,
642,55 miles south of Adelaide South Australia AUSTRALIA,55 miles south of Adelaide,South Australia,AUSTRALIA,-34.9284989,138.6007456,,,APPROXIMATE,
643,Mermaid Beach Queensland AUSTRALIA,Mermaid Beach,Queensland,AUSTRALIA,-28.044,153.437,4218,"Mermaid Beach QLD 4218, Australia",APPROXIMATE,
644,Wanda Beach New South Wales AUSTRALIA,Wanda Beach,New South Wales,AUSTRALIA,-34.0423701,151.1631692,,,APPROXIMATE,
645,Clarence Head New South Wales AUSTRALIA,Clarence Head,New South Wales,AUSTRALIA,-29.43193,153.3653997,Australia,"Clarence Head, Yamba NSW 2464, Australia",APPROXIMATE,
646,Yallingup Western Australia AUSTRALIA,Yallingup,Western Australia,AUSTRALIA,-33.6726029,115.0308297,6282,"Yallingup WA 6282, Australia",APPROXIMATE,
647,Wombarra Beach near Austinmeer New South Wales AUSTRALIA,Wombarra Beach near Austinmeer,New South Wales,AUSTRALIA,-34.2794078,150.9559166,Australia,"Wombarra Beach, Wombarra NSW 2515, Australia",APPROXIMATE,
648,Sugarloaf Bay Middle Harbour Sydney New South Wales AUSTRALIA,Sugarloaf Bay,New South Wales,AUSTRALIA,-33.7831723,151.2231308,2087,"Sugarloaf Bay, New South Wales 2087, Australia",APPROXIMATE,
650,Off Franklin Island between Streaky Bay & Ceduna South Australia AUSTRALIA,Off Franklin Island between Streaky Bay & Ceduna,South Australia,AUSTRALIA,-32.797222,134.211111,5680,"Streaky Bay SA 5680, Australia",APPROXIMATE,
651,Carrickalinga Head South Australia AUSTRALIA,Carrickalinga Head,South Australia,AUSTRALIA,-35.4283519,138.3308642,5204,"Carrickalinga SA 5204, Australia",APPROXIMATE,
653,Townsville Queensland AUSTRALIA,Townsville,Queensland,AUSTRALIA,-19.2589635,146.8169483,4810,"Townsville QLD 4810, Australia",APPROXIMATE,
654,Off Kisma New South Wales AUSTRALIA,Off Kisma,New South Wales,AUSTRALIA,-34.6738221,150.8443706,2533,"Kiama NSW 2533, Australia",APPROXIMATE,
655,Port Phillip Bay South Australia AUSTRALIA,Port Phillip Bay,South Australia,AUSTRALIA,-38.173206,144.8731219,,,APPROXIMATE,
656,Emu Point Western Australia AUSTRALIA,Emu Point,Western Australia,AUSTRALIA,-34.9977653,117.9383683,6330,"Emu Point WA 6330, Australia",APPROXIMATE,
658,Norah Head New South Wales AUSTRALIA,Norah Head,New South Wales,AUSTRALIA,-33.2815439,151.5791475,Australia,"Norah Head, NSW 2263, Australia",APPROXIMATE,
659,Between Smith‚Äôs Rock & Moreton Island Queensland AUSTRALIA,Between Smith‚Äôs Rock & Moreton Island,Queensland,AUSTRALIA,-27.178901,153.3730896,4025,"Tangalooma, Moreton Island QLD 4025, Australia",GEOMETRIC_CENTER,
661,Cronulla New South Wales AUSTRALIA,Cronulla,New South Wales,AUSTRALIA,-34.05744,151.15219,2230,"Cronulla NSW 2230, Australia",APPROXIMATE,
662,Long Reef North Manly New South Wales AUSTRALIA,Long Reef,New South Wales,AUSTRALIA,-33.7419539,151.3170694,2097,"Unnamed Road, Collaroy NSW 2097, Australia",GEOMETRIC_CENTER,
664,Marino South Australia AUSTRALIA,Marino,South Australia,AUSTRALIA,-35.0497245,138.5162223,5049,"Marino SA 5049, Australia",APPROXIMATE,
666,Lake Illawarra New South Wales AUSTRALIA,Lake Illawarra,New South Wales,AUSTRALIA,-34.541667,150.858333,2528,"Lake Illawarra NSW 2528, Australia",APPROXIMATE,
667,Dicky Beach Queensland AUSTRALIA,Dicky Beach,Queensland,AUSTRALIA,-26.783,153.133,4551,"Dicky Beach QLD 4551, Australia",APPROXIMATE,
669,Seaspray near Sale New South Wales AUSTRALIA,Seaspray,New South Wales,AUSTRALIA,-38.2936345,147.1467693,3851,"Seaspray VIC 3851, Australia",APPROXIMATE,
670,Dangerous Reef South Australia AUSTRALIA,Dangerous Reef,South Australia,AUSTRALIA,-34.8166667,136.2291667,,,APPROXIMATE,
671,Lamberts Beach Mackay Queensland AUSTRALIA,Lambert's Beach,Queensland,AUSTRALIA,-21.0743916,149.2282795,,,APPROXIMATE,
672,Lambert‚Äôs Beach Mackay Queensland AUSTRALIA,Lambert‚Äôs Beach,Queensland,AUSTRALIA,-21.0743916,149.2282795,,,APPROXIMATE,
673,North of main swimming area in Watermans Bay Beach Perth Western Australia AUSTRALIA,North of main swimming area in Waterman's Bay Beach,Western Australia,AUSTRALIA,-31.8517249,115.7510656,Western Australia,"Watermans Bay Beach, W Coast Dr, Watermans Bay WA 6020, Australia",GEOMETRIC_CENTER,
674,Cowell South Australia AUSTRALIA,Cowell,South Australia,AUSTRALIA,-33.683333,136.916667,5602,"Cowell SA 5602, Australia",APPROXIMATE,
675,Noosa Heads Queensland AUSTRALIA,Noosa Heads,Queensland,AUSTRALIA,-26.398,153.093,4567,"Noosa Heads QLD 4567, Australia",APPROXIMATE,
676,Broome Western Australia AUSTRALIA,Broome,Western Australia,AUSTRALIA,-17.9644291,122.2303657,6725,"Broome WA 6725, Australia",APPROXIMATE,
677,Cape Moreton Queensland AUSTRALIA,Cape Moreton,Queensland,AUSTRALIA,-27.0333333,153.4666667,,,APPROXIMATE,
678,Quinn‚Äôs Rocks south of Yanchep Western Australia AUSTRALIA,Quinn‚Äôs Rocks,Western Australia,AUSTRALIA,-31.6605175,115.6959328,6030,"Quinns Rocks WA 6030, Australia",APPROXIMATE,
679,Trial Bay north of Kempsey New South Wales AUSTRALIA,Trial Bay,New South Wales,AUSTRALIA,-30.879986,153.0576088,,,APPROXIMATE,
680,Otford New South Wales AUSTRALIA,Otford,New South Wales,AUSTRALIA,-34.216667,151,2508,"Otford NSW 2508, Australia",APPROXIMATE,
681,10 miles off Nambucca Heads onboard trawler New South Wales AUSTRALIA,10 miles off Nambucca Heads onboard trawler,New South Wales,AUSTRALIA,-30.6419702,152.9978834,2448,"Nambucca Heads NSW 2448, Australia",APPROXIMATE,
682,Flinders Island Victoria AUSTRALIA,Flinders Island,Victoria,AUSTRALIA,-37.908132,145.101076,Victoria,"34 Hamilton St, Oakleigh VIC 3166, Australia",ROOFTOP,Flinders Island
684,Glenelg Breakwater South Australia AUSTRALIA,Glenelg Breakwater,South Australia,AUSTRALIA,-34.982,138.516,5045,"Glenelg SA 5045, Australia",APPROXIMATE,
685,Lady Beach at Warrnambool Victoria AUSTRALIA,Lady Beach at Warrnambool,Victoria,AUSTRALIA,-38.3974833,142.4726155,Australia,"Worm Bay Rd, Warrnambool VIC 3280, Australia",GEOMETRIC_CENTER,Lady Beach
686,Shark Bay Western Australia AUSTRALIA,Shark Bay,Western Australia,AUSTRALIA,-25.7834193,113.2987712,,,APPROXIMATE,
687,Aldinga Beach South Australia AUSTRALIA,Aldinga Beach,South Australia,AUSTRALIA,-35.281,138.454,5173,"Aldinga Beach SA 5173, Australia",APPROXIMATE,
688,Mount Martha Beach Victoria AUSTRALIA,Mount Martha Beach,Victoria,AUSTRALIA,-38.2637496,145.0158385,Australia,"Mount Martha Beach North, Mount Martha VIC 3934, Australia",APPROXIMATE,Mount Martha Beach
689,Carnac Island Western Australia AUSTRALIA,Carnac Island,Western Australia,AUSTRALIA,-32.1209579,115.6620901,,,APPROXIMATE,
690,Cook Island New South Wales AUSTRALIA,Cook Island,New South Wales,AUSTRALIA,-28.1958731,153.578029,,,APPROXIMATE,
691,Off Tasman Island Tasmania AUSTRALIA,Off Tasman Island,Tasmania,AUSTRALIA,-43.2381627,148.0023939,,,APPROXIMATE,
692,South coast New South Wales AUSTRALIA,South coast,New South Wales,AUSTRALIA,-36.6806101,149.6564494,,,APPROXIMATE,
694,College‚Äôs Crossing 54 miles above mouth of the Brisbane River Queensland AUSTRALIA,College‚Äôs Crossing,Queensland,AUSTRALIA,-26.8951068,152.318608,,,APPROXIMATE,
695,Colledges Crossing Brisbane River Queensland AUSTRALIA,Colledge's Crossing,Queensland,AUSTRALIA,-27.5568063,152.8026742,Australia,"Mount Crosby Rd, Chuwar QLD 4306, Australia",GEOMETRIC_CENTER,
696,Black‚Äôs Beach 9 miles north of Mackay Queensland AUSTRALIA,Black‚Äôs Beach,Queensland,AUSTRALIA,-21.062778,149.1875,4740,"Blacks Beach QLD 4740, Australia",APPROXIMATE,
697,Scott‚Äôs Point Redcliffe Peninsula Queensland AUSTRALIA,Scott‚Äôs Point,Queensland,AUSTRALIA,-27.2521951,153.10984,,,APPROXIMATE,
699,North Head New South Wales AUSTRALIA,North Head,New South Wales,AUSTRALIA,-33.8332187,151.2804258,Australia,"Sydney Heads, Watsons Bay NSW 2030, Australia",APPROXIMATE,
700,Frenchman Bay Western Australia AUSTRALIA,Frenchman Bay,Western Australia,AUSTRALIA,-35.0943154,117.9496472,6330,"Frenchman Bay WA 6330, Australia",APPROXIMATE,
702,Horseshoe Bay near Kempsey New South Wales AUSTRALIA,Horseshoe Bay,New South Wales,AUSTRALIA,-30.8840947,153.039412,Kempsey Shire Council,"Horseshoe Bay Holiday Park, 1 Livingstone St, South West Rocks NSW 2431, Australia",ROOFTOP,
704,Canadian Bay near Mount Eliza Victoria AUSTRALIA,Canadian Bay near Mount Eliza,Victoria,AUSTRALIA,-38.191611,145.0954656,Australia,"Canadian Bay Rd, Mount Eliza VIC 3930, Australia",GEOMETRIC_CENTER,Canadian Bay near Mount Eliza
705,Off Broughton Island near Port Stephens New South Wales AUSTRALIA,Off Broughton Island near Port Stephens,New South Wales,AUSTRALIA,-32.6157855,152.3139827,,,APPROXIMATE,
706,Hog Bay South Australia AUSTRALIA,Hog Bay,South Australia,AUSTRALIA,-35.7189386,137.9434671,,,APPROXIMATE,
707,Ralph Bay Tasmania AUSTRALIA,Ralph Bay,Tasmania,AUSTRALIA,-42.97,147.43,,,APPROXIMATE,
708,Near Bondi Beach New South Wales AUSTRALIA,Near Bondi Beach,New South Wales,AUSTRALIA,-33.8914755,151.2766845,Australia,"Bondi Beach, NSW 2026, Australia",APPROXIMATE,
709,Wattamolla National Park New South Wales AUSTRALIA,Wattamolla National Park,New South Wales,AUSTRALIA,-34.0750773,151.0566579,Australia,"Royal National Park, Sir Bertram Stevens Dr, Royal National Park NSW 2233, Australia",GEOMETRIC_CENTER,
710,Millicent South Australia AUSTRALIA,Millicent,South Australia,AUSTRALIA,-37.6050244,140.3593062,5280,"Millicent SA 5280, Australia",APPROXIMATE,
711,Just below Roseville Bridge opposite Killarney picnic reserve Middle Harbor Sydney New South Wales AUSTRALIA,Just below Roseville Bridge,New South Wales,AUSTRALIA,-33.7730449,151.2037718,New South Wales,"Roseville Bridge, Warringah Rd, Roseville Chase NSW 2069, Australia",GEOMETRIC_CENTER,
713,Eaglehawk Neck Tasmania AUSTRALIA,Eaglehawk Neck,Tasmania,AUSTRALIA,-43.0197222,147.925,Australia,"Eaglehawk Neck, TAS 7179, Australia",APPROXIMATE,
714,Scotts Point Beach Queensland AUSTRALIA,Scotts Point Beach,Queensland,AUSTRALIA,-27.2521951,153.10984,,,APPROXIMATE,
715,Leichardt Sydney New South Wales AUSTRALIA,Leichardt,New South Wales,AUSTRALIA,-33.8837222,151.157028,2040,"Leichhardt NSW 2040, Australia",APPROXIMATE,
716,Off Wynnum in Moreton Bay near Brisbane Queensland AUSTRALIA,Off Wynnum in Moreton Bay,Queensland,AUSTRALIA,-27.443694,153.173618,4178,"Wynnum QLD 4178, Australia",APPROXIMATE,
717,Altona Melbourne Victoria AUSTRALIA,Altona,Victoria,AUSTRALIA,-37.8631512,144.8120218,3018,"Altona VIC 3018, Australia",APPROXIMATE,Altona
718,Laura Bay South Australia AUSTRALIA,Laura Bay,South Australia,AUSTRALIA,-32.2280904,133.8319968,5680,"Laura Bay SA 5680, Australia",APPROXIMATE,
719,Fairhaven Beach Lorne Victoria AUSTRALIA,Fairhaven Beach,Victoria,AUSTRALIA,-38.4684525,144.0776499,Australia,"Great Ocean Rd, Fairhaven VIC 3231, Australia",GEOMETRIC_CENTER,Fairhaven Beach
720,North Burleigh near Brisbane Queensland AUSTRALIA,North Burleigh,Queensland,AUSTRALIA,-28.0771255,153.4468079,Queensland,"220 The Esplanade, North Burleigh QLD 4220, Australia",ROOFTOP,
721,Surfers Paradise Northcliffe Queensland AUSTRALIA,Surfer's Paradise,Queensland,AUSTRALIA,-28.006492,153.4311202,Australia,"Northcliffe Terrace, Surfers Paradise QLD 4217, Australia",GEOMETRIC_CENTER,
722,Near Port Vincent South Australia AUSTRALIA,Near Port Vincent,South Australia,AUSTRALIA,-34.7814149,137.8547712,5581,"Port Vincent SA 5581, Australia",APPROXIMATE,
724,Maroubra Bay New South Wales AUSTRALIA,Maroubra Bay,New South Wales,AUSTRALIA,-33.98054,151.24301,2036,"Little Bay NSW 2036, Australia",APPROXIMATE,
725,Thirroul New South Wales AUSTRALIA,Thirroul,New South Wales,AUSTRALIA,-34.3147312,150.9103729,2515,"Thirroul NSW 2515, Australia",APPROXIMATE,
727,South Perth Western Australia AUSTRALIA,South Perth,Western Australia,AUSTRALIA,-31.9809515,115.8639168,6151,"South Perth WA 6151, Australia",APPROXIMATE,
728,Whale Bay King Island Bass Strait Tasmania AUSTRALIA,Whale Bay,Tasmania,AUSTRALIA,-39.8753477,143.9370759,7256,"King Island, Tasmania 7256, Australia",APPROXIMATE,
